river_name,country,original_lat,original_lon,adjusted_lon,used_lat,used_lon,date,u_ms,v_ms,current_speed_ms,was_clamped,file_source,depth_type
Rungwa,United Republic of Tanzania,-8.03843460505356,35.62223705384754,35.62223705384754,-8.03843460505356,35.62223705384754,2024-08-31,,,,False,uv3z_08-31-2024.nc4,bottom
Ligonha,Mozambique,-17.03608505787743,41.608649221092264,41.608649221092264,-17.03608505787743,41.608649221092264,2024-08-31,-0.021000001579523087,-0.01900000125169754,0.028319606528066033,False,uv3z_08-31-2024.nc4,bottom
Dongwe,Zambia,-15.596922617182363,26.644385347634167,26.644385347634167,-15.596922617182363,26.644385347634167,2024-08-31,,,,False,uv3z_08-31-2024.nc4,bottom
Cuito,Angola,-14.198700392382694,20.414733570379727,20.414733570379727,-14.198700392382694,20.414733570379727,2024-08-31,,,,False,uv3z_08-31-2024.nc4,bottom
Bagoé,Mali,12.96021038813174,-7.303819637145364,352.69618036285465,12.96021038813174,352.69618036285465,2024-08-31,,,,False,uv3z_08-31-2024.nc4,bottom
Hadejia,Nigeria,12.849536915274728,8.341243368239368,8.341243368239368,12.849536915274728,8.341243368239368,2024-08-31,,,,False,uv3z_08-31-2024.nc4,bottom
Sous,Morocco,35.50578061351372,-9.517816462824872,350.4821835371751,35.50578061351372,350.4821835371751,2024-08-31,0.039000000804662704,0.036000002175569534,0.053075420105776865,False,uv3z_08-31-2024.nc4,bottom
Oum Er Rbia,Morocco,38.288080487369115,-6.679169447596414,353.3208305524036,38.288080487369115,353.3208305524036,2024-08-31,,,,False,uv3z_08-31-2024.nc4,bottom
San Miguel,Bolivia,-14.99357059038867,-71.24447410769508,288.75552589230495,-14.99357059038867,288.75552589230495,2024-08-31,,,,False,uv3z_08-31-2024.nc4,bottom
Coari,Brazil,-4.465620680491888,-70.32864300399591,289.6713569960041,-4.465620680491888,289.6713569960041,2024-08-31,,,,False,uv3z_08-31-2024.nc4,bottom
Dan,China,38.79382470950977,123.81956076286787,123.81956076286787,38.79382470950977,123.81956076286787,2024-08-31,-0.03200000151991844,-0.017000000923871994,0.03623534363969012,False,uv3z_08-31-2024.nc4,bottom
Dan,China,38.79382470950977,123.81956076286787,123.81956076286787,38.79382470950977,123.81956076286787,2024-08-31,-0.03200000151991844,-0.017000000923871994,0.03623534363969012,False,uv3z_08-31-2024.nc4,bottom
Tonle Sap,Cambodia,14.7564366888082,115.42428830583532,115.42428830583532,14.7564366888082,115.42428830583532,2024-08-31,-0.02500000037252903,0.032999999821186066,0.04140048317139224,False,uv3z_08-31-2024.nc4,bottom
Tonle Sap,Cambodia,12.90604024992757,116.83111011282334,116.83111011282334,12.90604024992757,116.83111011282334,2024-08-31,0.003000000026077032,0.004000000189989805,0.005000000167638064,False,uv3z_08-31-2024.nc4,bottom
Maningory,Madagascar,-19.54296487616503,54.09768508100345,54.09768508100345,-19.54296487616503,54.09768508100345,2024-08-31,-0.0010000000474974513,-0.0010000000474974513,0.0014142136295446348,False,uv3z_08-31-2024.nc4,bottom
Maningory,Madagascar,-19.54296487616503,54.09768508100345,54.09768508100345,-19.54296487616503,54.09768508100345,2024-08-31,-0.0010000000474974513,-0.0010000000474974513,0.0014142136295446348,False,uv3z_08-31-2024.nc4,bottom
Bois,Brazil,-20.97997261418931,-55.71083930354386,304.2891606964561,-20.97997261418931,304.2891606964561,2024-08-31,,,,False,uv3z_08-31-2024.nc4,bottom
Bois,Brazil,-20.59480381231932,-55.777968000384526,304.22203199961547,-20.59480381231932,304.22203199961547,2024-08-31,,,,False,uv3z_08-31-2024.nc4,bottom
Cauca,Colombia,10.47039205159124,-83.21115630231165,276.7888436976883,10.47039205159124,276.7888436976883,2024-08-31,0.0,0.0,0.0,False,uv3z_08-31-2024.nc4,bottom
Cojedes,Venezuela,8.86759806413385,-75.28461608593132,284.7153839140687,8.86759806413385,284.7153839140687,2024-08-31,,,,False,uv3z_08-31-2024.nc4,bottom
Vaupés,Brazil,0.06572807056038771,-74.8659993582241,285.1340006417759,0.06572807056038771,285.1340006417759,2024-08-31,,,,False,uv3z_08-31-2024.nc4,bottom
Santiago,Ecuador,-5.4431953652749,-85.08711801410278,274.91288198589723,-5.4431953652749,274.91288198589723,2024-08-31,-0.04500000178813934,0.005000000353902578,0.04527692750697169,False,uv3z_08-31-2024.nc4,bottom
Aripuanã,Brazil,-5.7000095945820135,-67.23039545750345,292.76960454249655,-5.7000095945820135,292.76960454249655,2024-08-31,,,,False,uv3z_08-31-2024.nc4,bottom
Teles Pires,Brazil,-12.226861131287174,-65.30662832962213,294.69337167037787,-12.226861131287174,294.69337167037787,2024-08-31,,,,False,uv3z_08-31-2024.nc4,bottom
Unini,Brazil,-1.870893059746523,-68.38604179234514,291.61395820765483,-1.870893059746523,291.61395820765483,2024-08-31,,,,False,uv3z_08-31-2024.nc4,bottom
Ajajú,Colombia,-1.3268610236981622,-77.31687623315999,282.68312376684,-1.3268610236981622,282.68312376684,2024-08-31,,,,False,uv3z_08-31-2024.nc4,bottom
Jutaí,Brazil,-2.9959562654690925,-74.31587017545127,285.68412982454873,-2.9959562654690925,285.68412982454873,2024-08-31,,,,False,uv3z_08-31-2024.nc4,bottom
Rio das Mortes,Brazil,-13.084671498176927,-56.45833229055025,303.54166770944977,-13.084671498176927,303.54166770944977,2024-08-31,,,,False,uv3z_08-31-2024.nc4,bottom
Miranda,Brazil,-21.883680576951825,-63.83487921220804,296.165120787792,-21.883680576951825,296.165120787792,2024-08-31,,,,False,uv3z_08-31-2024.nc4,bottom
Verde,Brazil,-23.993736857035397,-57.73937611819472,302.26062388180526,-23.993736857035397,302.26062388180526,2024-08-31,,,,False,uv3z_08-31-2024.nc4,bottom
Taquari,Brazil,-21.853722854786092,-63.80126050856758,296.19873949143243,-21.853722854786092,296.19873949143243,2024-08-31,,,,False,uv3z_08-31-2024.nc4,bottom
San Martin,Bolivia,-13.915343102221739,-71.57435593856637,288.4256440614336,-13.915343102221739,288.4256440614336,2024-08-31,,,,False,uv3z_08-31-2024.nc4,bottom
Verde,Paraguay,-26.1626098207859,-64.32271731273032,295.67728268726967,-26.1626098207859,295.67728268726967,2024-08-31,,,,False,uv3z_08-31-2024.nc4,bottom
Chico,Argentina,-63.66524918157654,-76.51883289144767,283.4811671085523,-63.66524918157654,283.4811671085523,2024-08-31,0.0,-0.006000000052154064,0.006000000052154064,False,uv3z_08-31-2024.nc4,bottom
Gallegos,Argentina,-66.9911472115454,-77.49706378783758,282.5029362121624,-66.9911472115454,282.5029362121624,2024-08-31,0.003000000026077032,0.004000000189989805,0.005000000167638064,False,uv3z_08-31-2024.nc4,bottom
Rio Rapel,Chile,-38.618245809569146,-79.64643225680166,280.35356774319837,-38.618245809569146,280.35356774319837,2024-08-31,0.00800000037997961,0.0010000000474974513,0.008062258131235244,False,uv3z_08-31-2024.nc4,bottom
Cess,Liberia,6.051603846966388,-10.66514644898913,349.3348535510109,6.051603846966388,349.3348535510109,2024-08-31,0.11500000208616257,0.03700000047683716,0.1208056311398742,False,uv3z_08-31-2024.nc4,bottom
Rokel,Sierra Leone,9.51128285614557,-14.326459720641544,345.67354027935846,9.51128285614557,345.67354027935846,2024-08-31,-0.03700000047683716,0.039000000804662704,0.05375872113480418,False,uv3z_08-31-2024.nc4,bottom
Ogun,Nigeria,7.303841867292692,3.8512304107304023,3.8512304107304023,7.303841867292692,3.8512304107304023,2024-08-31,,,,False,uv3z_08-31-2024.nc4,bottom
Gamtoos,South Africa,-40.003653067616746,27.851071234162813,27.851071234162813,-40.003653067616746,27.851071234162813,2024-08-31,-0.04200000315904617,0.0,0.04200000315904617,False,uv3z_08-31-2024.nc4,bottom
Wami,United Republic of Tanzania,-6.822366191104067,43.24468699130065,43.24468699130065,-6.822366191104067,43.24468699130065,2024-08-31,-0.005000000353902578,0.11100000888109207,0.11111256443418784,False,uv3z_08-31-2024.nc4,bottom
Notwani,Botswana,-27.055565680537057,30.010332353187614,30.010332353187614,-27.055565680537057,30.010332353187614,2024-08-31,,,,False,uv3z_08-31-2024.nc4,bottom
Mogalakwena,South Africa,-25.50385213107075,32.183182277240896,32.183182277240896,-25.50385213107075,32.183182277240896,2024-08-31,,,,False,uv3z_08-31-2024.nc4,bottom
Umzingwani,Zimbabwe,-25.179843277505206,33.32056525812431,33.32056525812431,-25.179843277505206,33.32056525812431,2024-08-31,,,,False,uv3z_08-31-2024.nc4,bottom
Punguè,Mozambique,-22.132634531882314,38.43631550958454,38.43631550958454,-22.132634531882314,38.43631550958454,2024-08-31,-0.1340000033378601,0.1770000010728836,0.22200225511094998,False,uv3z_08-31-2024.nc4,bottom
Shangani,Zimbabwe,-20.78552866852592,30.246777560683096,30.246777560683096,-20.78552866852592,30.246777560683096,2024-08-31,,,,False,uv3z_08-31-2024.nc4,bottom
Licungo,Mozambique,-19.697973068741703,41.823080564441604,41.823080564441604,-19.697973068741703,41.823080564441604,2024-08-31,0.052000001072883606,-0.20900000631809235,0.21537177798528417,False,uv3z_08-31-2024.nc4,bottom
Igombe,United Republic of Tanzania,-5.2889229159316145,34.945405852989246,34.945405852989246,-5.2889229159316145,34.945405852989246,2024-08-31,,,,False,uv3z_08-31-2024.nc4,bottom
Kangen,South Sudan,7.400657309524098,36.99008616801392,36.99008616801392,7.400657309524098,36.99008616801392,2024-08-31,,,,False,uv3z_08-31-2024.nc4,bottom
Moulouya,Morocco,41.56040854961536,-2.6055174761599456,357.39448252384005,41.56040854961536,357.39448252384005,2024-08-31,,,,False,uv3z_08-31-2024.nc4,bottom
Fen,China,42.01592535674218,123.06913259397537,123.06913259397537,42.01592535674218,123.06913259397537,2024-08-31,,,,False,uv3z_08-31-2024.nc4,bottom
Yi,China,41.007241153431835,132.69315915690282,132.69315915690282,41.007241153431835,132.69315915690282,2024-08-31,0.003000000026077032,-0.06300000101327896,0.06307138913825834,False,uv3z_08-31-2024.nc4,bottom
Bogcang,China,37.25937707243587,97.30834570451276,97.30834570451276,37.25937707243587,97.30834570451276,2024-08-31,,,,False,uv3z_08-31-2024.nc4,bottom
Tura,Russia,77.69897326438972,74.53687850043443,74.53687850043443,77.69897326438972,74.53687850043443,2024-08-31,0.0820000022649765,0.020000001415610313,0.08440379391994512,False,uv3z_08-31-2024.nc4,bottom
Herlen,Mongolia,62.02081219636593,130.30821516396506,130.30821516396506,62.02081219636593,130.30821516396506,2024-08-31,,,,False,uv3z_08-31-2024.nc4,bottom
Bol’shoy Yugan,Russia,85.97514475399404,81.69578712075617,81.69578712075617,85.97514475399404,81.69578712075617,2024-08-31,-0.004000000189989805,0.0,0.004000000189989805,False,uv3z_08-31-2024.nc4,bottom
Vasyugan,Russia,81.69782646516596,89.83939490866133,89.83939490866133,81.69782646516596,89.83939490866133,2024-08-31,0.049000002443790436,0.049000002443790436,0.06929646801232324,False,uv3z_08-31-2024.nc4,bottom
Qarqan,China,45.21200136516152,95.37737650996637,95.37737650996637,45.21200136516152,95.37737650996637,2024-08-31,,,,False,uv3z_08-31-2024.nc4,bottom
Huan,China,41.74607136738826,120.1622697775039,120.1622697775039,41.74607136738826,120.1622697775039,2024-08-31,,,,False,uv3z_08-31-2024.nc4,bottom
Zi,China,37.35991624753155,107.91875644684724,107.91875644684724,37.35991624753155,107.91875644684724,2024-08-31,,,,False,uv3z_08-31-2024.nc4,bottom
Kaladan,Myanmar,23.238565617247307,103.60865926791529,103.60865926791529,23.238565617247307,103.60865926791529,2024-08-31,,,,False,uv3z_08-31-2024.nc4,bottom
Mytitha,Myanmar,26.404430307651843,104.982867942835,104.982867942835,26.404430307651843,104.982867942835,2024-08-31,,,,False,uv3z_08-31-2024.nc4,bottom
Jiulong,China,27.91849822803424,131.12381524177414,131.12381524177414,27.91849822803424,131.12381524177414,2024-08-31,-0.012000000104308128,-0.020000001415610313,0.02332380884692313,False,uv3z_08-31-2024.nc4,bottom
Mei,China,29.667166287518246,128.10166500344116,128.10166500344116,29.667166287518246,128.10166500344116,2024-08-31,0.005000000353902578,0.015000000596046448,0.01581138897821503,False,uv3z_08-31-2024.nc4,bottom
Tuo,China,33.415397821143095,117.38107622993584,117.38107622993584,33.415397821143095,117.38107622993584,2024-08-31,,,,False,uv3z_08-31-2024.nc4,bottom
Baram,Malaysia,5.093175333644238,126.90286062382899,126.90286062382899,5.093175333644238,126.90286062382899,2024-08-31,0.006000000052154064,0.0,0.006000000052154064,False,uv3z_08-31-2024.nc4,bottom
Son,India,29.44380071784607,94.4853529926771,94.4853529926771,29.44380071784607,94.4853529926771,2024-08-31,,,,False,uv3z_08-31-2024.nc4,bottom
Betwa,India,29.704878395406524,89.28932008110864,89.28932008110864,29.704878395406524,89.28932008110864,2024-08-31,,,,False,uv3z_08-31-2024.nc4,bottom
Ba,Vietnam,14.597389241466585,121.70372946471409,121.70372946471409,14.597389241466585,121.70372946471409,2024-08-31,0.0020000000949949026,0.0010000000474974513,0.0022360680837073196,False,uv3z_08-31-2024.nc4,bottom
Masi,Indonesia,-2.6184509244600824,116.93558084588231,116.93558084588231,-2.6184509244600824,116.93558084588231,2024-08-31,0.0010000000474974513,-0.16500000655651093,0.16500303683188272,False,uv3z_08-31-2024.nc4,bottom
Pembuang,Indonesia,-3.7798622738904872,125.31889515448978,125.31889515448978,-3.7798622738904872,125.31889515448978,2024-08-31,-0.007000000216066837,0.003000000026077032,0.007615773314732914,False,uv3z_08-31-2024.nc4,bottom
Ramu,Papua New Guinea,-4.440884840859592,161.0275570083184,161.0275570083184,-4.440884840859592,161.0275570083184,2024-08-31,0.0020000000949949026,0.01600000075995922,0.016124516262470488,False,uv3z_08-31-2024.nc4,bottom
Parbati,India,29.616848804635023,85.21050436376136,85.21050436376136,29.616848804635023,85.21050436376136,2024-08-31,,,,False,uv3z_08-31-2024.nc4,bottom
Indravati,India,21.075827191627546,89.35318746474248,89.35318746474248,21.075827191627546,89.35318746474248,2024-08-31,-0.01100000087171793,0.017000000923871994,0.020248457980533822,False,uv3z_08-31-2024.nc4,bottom
Ravi,Pakistan,36.75271404300089,82.60797642470767,82.60797642470767,36.75271404300089,82.60797642470767,2024-08-31,,,,False,uv3z_08-31-2024.nc4,bottom
Tumen,North Korea,51.76526259139037,145.49479188768902,145.49479188768902,51.76526259139037,145.49479188768902,2024-08-31,-0.009000000543892384,0.0,0.009000000543892384,False,uv3z_08-31-2024.nc4,bottom
Markha,Russia,90.0,132.33756730691763,132.33756730691763,90.0,132.33756730691763,2024-08-31,0.0010000000474974513,0.0010000000474974513,0.0014142136295446348,False,uv3z_08-31-2024.nc4,bottom
Selemdzha,Russia,67.19884465215522,143.4673421774404,143.4673421774404,67.19884465215522,143.4673421774404,2024-08-31,,,,False,uv3z_08-31-2024.nc4,bottom
Selennyakh,Russia,90.0,161.37874608547435,161.37874608547435,90.0,161.37874608547435,2024-08-31,0.0010000000474974513,0.0010000000474974513,0.0014142136295446348,False,uv3z_08-31-2024.nc4,bottom
Bytantay,Russia,90.0,149.6844922540687,149.6844922540687,90.0,149.6844922540687,2024-08-31,0.0010000000474974513,0.0010000000474974513,0.0014142136295446348,False,uv3z_08-31-2024.nc4,bottom
Uchur,Russia,78.02635242950093,146.14922873786043,146.14922873786043,78.02635242950093,146.14922873786043,2024-08-31,0.04100000113248825,-0.015000000596046448,0.04365776117422229,False,uv3z_08-31-2024.nc4,bottom
Chara,Russia,84.38970325810108,134.5727626684416,134.5727626684416,84.38970325810108,134.5727626684416,2024-08-31,0.003000000026077032,-0.0020000000949949026,0.003605551349855083,False,uv3z_08-31-2024.nc4,bottom
Ozhogina,Russia,90.0,168.16102738562688,168.16102738562688,90.0,168.16102738562688,2024-08-31,0.0010000000474974513,0.0010000000474974513,0.0014142136295446348,False,uv3z_08-31-2024.nc4,bottom
Nemor,China,61.29654837426987,138.64657770553836,138.64657770553836,61.29654837426987,138.64657770553836,2024-08-31,,,,False,uv3z_08-31-2024.nc4,bottom
Penzhina,Russia,89.3092472040762,180.0,180.0,89.3092472040762,180.0,2024-08-31,0.0,0.007000000216066837,0.007000000216066837,False,uv3z_08-31-2024.nc4,bottom
Quan,China,38.981808349675994,128.63679214546255,128.63679214546255,38.981808349675994,128.63679214546255,2024-08-31,0.024000000208616257,0.08800000697374344,0.09121404079083699,False,uv3z_08-31-2024.nc4,bottom
Muling,China,57.29394186339582,148.6228260948039,148.6228260948039,57.29394186339582,148.6228260948039,2024-08-31,0.003000000026077032,-0.015000000596046448,0.01529705913036411,False,uv3z_08-31-2024.nc4,bottom
Ivaí,Brazil,-29.132578944848767,-56.955573844152234,303.04442615584776,-29.132578944848767,303.04442615584776,2024-08-31,,,,False,uv3z_08-31-2024.nc4,bottom
Jejuí Guazú,Paraguay,-27.90527051414266,-61.247788155666704,298.7522118443333,-27.90527051414266,298.7522118443333,2024-08-31,,,,False,uv3z_08-31-2024.nc4,bottom
Tercero,Argentina,-38.229115010718665,-70.070510063675,289.929489936325,-38.229115010718665,289.929489936325,2024-08-31,,,,False,uv3z_08-31-2024.nc4,bottom
Pardo,Brazil,-22.769865882596974,-54.1381797199883,305.86182028001167,-22.769865882596974,305.86182028001167,2024-08-31,,,,False,uv3z_08-31-2024.nc4,bottom
Pibor,South Sudan,7.400657309524098,36.99008616801392,36.99008616801392,7.400657309524098,36.99008616801392,2024-08-31,,,,False,uv3z_08-31-2024.nc4,bottom
Gombe,United Republic of Tanzania,-5.528067190914366,34.46419908932084,34.46419908932084,-5.528067190914366,34.46419908932084,2024-08-31,,,,False,uv3z_08-31-2024.nc4,bottom
Balak,India,27.369454736877174,101.27453740578407,101.27453740578407,27.369454736877174,101.27453740578407,2024-08-31,,,,False,uv3z_08-31-2024.nc4,bottom
Balak,Bangladesh,27.791412751437086,101.48391371366279,101.48391371366279,27.791412751437086,101.48391371366279,2024-08-31,,,,False,uv3z_08-31-2024.nc4,bottom
Gandak,Nepal,29.357878975341283,94.8249644079488,94.8249644079488,29.357878975341283,94.8249644079488,2024-08-31,,,,False,uv3z_08-31-2024.nc4,bottom
Ying,China,38.060161071034415,129.71155791277477,129.71155791277477,38.060161071034415,129.71155791277477,2024-08-31,-0.049000002443790436,0.0,0.049000002443790436,False,uv3z_08-31-2024.nc4,bottom
Carcarañá,Argentina,-38.15141907058289,-67.64778919275813,292.3522108072419,-38.15141907058289,292.3522108072419,2024-08-31,,,,False,uv3z_08-31-2024.nc4,bottom
Gwayi,Zimbabwe,-20.78552866852592,30.246777560683096,30.246777560683096,-20.78552866852592,30.246777560683096,2024-08-31,,,,False,uv3z_08-31-2024.nc4,bottom
Javari,Peru,-4.688545393848453,-77.88551336838158,282.11448663161843,-4.688545393848453,282.11448663161843,2024-08-31,,,,False,uv3z_08-31-2024.nc4,bottom
Guárico,Venezuela,9.950162365075101,-75.03194584523186,284.96805415476814,9.950162365075101,284.96805415476814,2024-08-31,,,,False,uv3z_08-31-2024.nc4,bottom
Guárico,Venezuela,10.899661971937302,-74.52383324760707,285.47616675239294,10.899661971937302,285.47616675239294,2024-08-31,,,,False,uv3z_08-31-2024.nc4,bottom
Limay,Argentina,-47.888170960892914,-77.1586481874084,282.8413518125916,-47.888170960892914,282.8413518125916,2024-08-31,0.03100000135600567,-0.00800000037997961,0.032015622595102336,False,uv3z_08-31-2024.nc4,bottom
Limay,Argentina,-49.93466110877202,-79.22854932456596,280.77145067543404,-49.93466110877202,280.77145067543404,2024-08-31,-0.0010000000474974513,0.01600000075995922,0.016031220303323466,False,uv3z_08-31-2024.nc4,bottom
Di’er Songhua,China,53.90186210853919,141.01820466954823,141.01820466954823,53.90186210853919,141.01820466954823,2024-08-31,0.08500000089406967,-0.03100000135600567,0.09047651759470077,False,uv3z_08-31-2024.nc4,bottom
Di’er Songhua,China,53.89998901773524,141.01918306351024,141.01918306351024,53.89998901773524,141.01918306351024,2024-08-31,0.0690000057220459,0.005000000353902578,0.06918092795837154,False,uv3z_08-31-2024.nc4,bottom
Ogooué,Gabon,-0.8682417783848788,11.114283632790336,11.114283632790336,-0.8682417783848788,11.114283632790336,2024-08-31,,,,False,uv3z_08-31-2024.nc4,bottom
Ogooué,Gabon,-1.061175596474595,9.939395550028323,9.939395550028323,-1.061175596474595,9.939395550028323,2024-08-31,,,,False,uv3z_08-31-2024.nc4,bottom
Chico,Argentina,-56.84897390115614,-76.30173814231274,283.69826185768727,-56.84897390115614,283.69826185768727,2024-08-31,-0.010000000707805157,-0.004000000189989805,0.01077033034201004,False,uv3z_08-31-2024.nc4,bottom
Chico,Argentina,-56.84897390115614,-76.30173814231274,283.69826185768727,-56.84897390115614,283.69826185768727,2024-08-31,-0.010000000707805157,-0.004000000189989805,0.01077033034201004,False,uv3z_08-31-2024.nc4,bottom
Pongola,South Africa,-31.484375996250012,35.501133623433766,35.501133623433766,-31.484375996250012,35.501133623433766,2024-08-31,-0.020000001415610313,0.0020000000949949026,0.020099752660279035,False,uv3z_08-31-2024.nc4,bottom
Pongola,South Africa,-31.484375996250012,35.501133623433766,35.501133623433766,-31.484375996250012,35.501133623433766,2024-08-31,-0.020000001415610313,0.0020000000949949026,0.020099752660279035,False,uv3z_08-31-2024.nc4,bottom
Lufira,Democratic Republic of the Congo,-12.1422617718177,30.04887020424838,30.04887020424838,-12.1422617718177,30.04887020424838,2024-08-31,,,,False,uv3z_08-31-2024.nc4,bottom
Lufira,Democratic Republic of the Congo,-9.175583263633019,29.44574468186453,29.44574468186453,-9.175583263633019,29.44574468186453,2024-08-31,,,,False,uv3z_08-31-2024.nc4,bottom
Lokoro,Democratic Republic of the Congo,-2.9983886316860966,20.23824217066991,20.23824217066991,-2.9983886316860966,20.23824217066991,2024-08-31,,,,False,uv3z_08-31-2024.nc4,bottom
Lokoro,Democratic Republic of the Congo,-1.9184269773651703,20.49588591400981,20.49588591400981,-1.9184269773651703,20.49588591400981,2024-08-31,,,,False,uv3z_08-31-2024.nc4,bottom
Awash,Ethiopia,12.908383292198092,46.33304188773239,46.33304188773239,12.908383292198092,46.33304188773239,2024-08-31,-0.05900000408291817,0.015000000596046448,0.06087692912479862,False,uv3z_08-31-2024.nc4,bottom
Awash,Ethiopia,12.693805808681303,46.30369006887088,46.30369006887088,12.693805808681303,46.30369006887088,2024-08-31,-0.0990000069141388,-0.018000001087784767,0.1006230659846925,False,uv3z_08-31-2024.nc4,bottom
Beas,India,37.258421481774086,84.82566940535492,84.82566940535492,37.258421481774086,84.82566940535492,2024-08-31,,,,False,uv3z_08-31-2024.nc4,bottom
Beas,India,36.33548077735585,83.49260763206144,83.49260763206144,36.33548077735585,83.49260763206144,2024-08-31,,,,False,uv3z_08-31-2024.nc4,bottom
Tungabhadra,India,17.09379451256475,84.95829614243284,84.95829614243284,17.09379451256475,84.95829614243284,2024-08-31,-0.026000000536441803,-0.0990000069141388,0.10235722444895867,False,uv3z_08-31-2024.nc4,bottom
Tungabhadra,India,17.894531140761707,87.09293434674609,87.09293434674609,17.894531140761707,87.09293434674609,2024-08-31,-0.00800000037997961,-0.0020000000949949026,0.008246211642909338,False,uv3z_08-31-2024.nc4,bottom
Mahaweli,Sri Lanka,8.874468656789736,90.32723300918359,90.32723300918359,8.874468656789736,90.32723300918359,2024-08-31,0.009000000543892384,-0.04200000315904617,0.04295346639271331,False,uv3z_08-31-2024.nc4,bottom
Mahaweli,Sri Lanka,8.874468656789736,90.32723300918359,90.32723300918359,8.874468656789736,90.32723300918359,2024-08-31,0.009000000543892384,-0.04200000315904617,0.04295346639271331,False,uv3z_08-31-2024.nc4,bottom
Ngun,Laos,21.07696808265632,114.41491186832015,114.41491186832015,21.07696808265632,114.41491186832015,2024-08-31,0.055000003427267075,-0.004000000189989805,0.055145266147869014,False,uv3z_08-31-2024.nc4,bottom
Ngun,Laos,20.88482169740772,114.17721649076205,114.17721649076205,20.88482169740772,114.17721649076205,2024-08-31,0.03200000151991844,-0.03100000135600567,0.04455334085505975,False,uv3z_08-31-2024.nc4,bottom
Qumar,China,41.6957841011685,102.74631370080819,102.74631370080819,41.6957841011685,102.74631370080819,2024-08-31,,,,False,uv3z_08-31-2024.nc4,bottom
Qumar,China,40.957883224823696,105.66899388633276,105.66899388633276,40.957883224823696,105.66899388633276,2024-08-31,,,,False,uv3z_08-31-2024.nc4,bottom
Yalu,North Korea,49.04396458866262,139.10397688279684,139.10397688279684,49.04396458866262,139.10397688279684,2024-08-31,,,,False,uv3z_08-31-2024.nc4,bottom
Yalu,North Korea,49.04396458866262,139.10397688279684,139.10397688279684,49.04396458866262,139.10397688279684,2024-08-31,,,,False,uv3z_08-31-2024.nc4,bottom
Corumbá,Brazil,-20.321957113608185,-54.1646235345737,305.8353764654263,-20.321957113608185,305.8353764654263,2024-08-31,,,,False,uv3z_08-31-2024.nc4,bottom
Corumbá,Brazil,-20.322980023835456,-54.165248619605016,305.834751380395,-20.322980023835456,305.834751380395,2024-08-31,,,,False,uv3z_08-31-2024.nc4,bottom
Lukuga,United Republic of Tanzania,-6.5494185995947,32.493985425852216,32.493985425852216,-6.5494185995947,32.493985425852216,2024-08-31,,,,False,uv3z_08-31-2024.nc4,bottom
Lukuga,Democratic Republic of the Congo,-6.5494185995947,32.493985425852216,32.493985425852216,-6.5494185995947,32.493985425852216,2024-08-31,,,,False,uv3z_08-31-2024.nc4,bottom
Tietê,Brazil,-25.570356880638016,-54.03172502139521,305.96827497860477,-25.570356880638016,305.96827497860477,2024-08-31,,,,False,uv3z_08-31-2024.nc4,bottom
Tietê,Brazil,-25.570356880638016,-54.03172502139521,305.96827497860477,-25.570356880638016,305.96827497860477,2024-08-31,,,,False,uv3z_08-31-2024.nc4,bottom
Tao’er,China,57.05653825325042,137.8526653605547,137.8526653605547,57.05653825325042,137.8526653605547,2024-08-31,,,,False,uv3z_08-31-2024.nc4,bottom
Tao’er,China,57.033841624597,138.07845694490788,138.07845694490788,57.033841624597,138.07845694490788,2024-08-31,,,,False,uv3z_08-31-2024.nc4,bottom
Oka,Russia,75.80665744527519,113.32574196767771,113.32574196767771,75.80665744527519,113.32574196767771,2024-08-31,,,,False,uv3z_08-31-2024.nc4,bottom
Oka,Russia,73.34821220799081,113.65720009993237,113.65720009993237,73.34821220799081,113.65720009993237,2024-08-31,,,,False,uv3z_08-31-2024.nc4,bottom
Mearim,Brazil,-4.270242241120656,-49.686432837439504,310.3135671625605,-4.270242241120656,310.3135671625605,2024-08-31,,,,False,uv3z_08-31-2024.nc4,bottom
Mearim,Brazil,-4.181659076686821,-49.748261900319065,310.25173809968095,-4.181659076686821,310.25173809968095,2024-08-31,,,,False,uv3z_08-31-2024.nc4,bottom
Oti,Ghana,9.713330455007352,0.2039951410875037,0.2039951410875037,9.713330455007352,0.2039951410875037,2024-08-31,,,,False,uv3z_08-31-2024.nc4,bottom
Oti,Ghana,9.713330455007352,0.2039951410875037,0.2039951410875037,9.713330455007352,0.2039951410875037,2024-08-31,,,,False,uv3z_08-31-2024.nc4,bottom
Luvua,Zambia,-9.415577134332985,32.157091771586224,32.157091771586224,-9.415577134332985,32.157091771586224,2024-08-31,,,,False,uv3z_08-31-2024.nc4,bottom
Luvua,Democratic Republic of the Congo,-9.415577134332985,32.156656929825324,32.156656929825324,-9.415577134332985,32.156656929825324,2024-08-31,,,,False,uv3z_08-31-2024.nc4,bottom
Bol’shoy Yenisey,Russia,67.18549368459821,105.1576743307213,105.1576743307213,67.18549368459821,105.1576743307213,2024-08-31,,,,False,uv3z_08-31-2024.nc4,bottom
Bunga,Nigeria,14.213942284677875,11.942928963426791,11.942928963426791,14.213942284677875,11.942928963426791,2024-08-31,,,,False,uv3z_08-31-2024.nc4,bottom
Niari,Republic of the Congo,-3.8939958098028713,14.138879856028478,14.138879856028478,-3.8939958098028713,14.138879856028478,2024-08-31,,,,False,uv3z_08-31-2024.nc4,bottom
Lungwebungu,Angola,-15.95571496837759,25.821719091210245,25.821719091210245,-15.95571496837759,25.821719091210245,2024-08-31,,,,False,uv3z_08-31-2024.nc4,bottom
Luangwa,Zambia,-17.50151578088971,33.85471400618365,33.85471400618365,-17.50151578088971,33.85471400618365,2024-08-31,,,,False,uv3z_08-31-2024.nc4,bottom
Great Ruaha,United Republic of Tanzania,-8.772087881692062,42.09203019356523,42.09203019356523,-8.772087881692062,42.09203019356523,2024-08-31,0.03500000014901161,-0.029000001028180122,0.04545327348019349,False,uv3z_08-31-2024.nc4,bottom
Tekezé,Ethiopia,15.496746090741269,42.09730264991625,42.09730264991625,15.496746090741269,42.09730264991625,2024-08-31,0.0,0.0,0.0,False,uv3z_08-31-2024.nc4,bottom
Mun,Thailand,17.14845087587425,117.44630249407253,117.44630249407253,17.14845087587425,117.44630249407253,2024-08-31,0.020000001415610313,-0.01100000087171793,0.022825426081504147,False,uv3z_08-31-2024.nc4,bottom
Chi,Thailand,16.997784288714342,116.5693897279749,116.5693897279749,16.997784288714342,116.5693897279749,2024-08-31,-0.012000000104308128,-0.0010000000474974513,0.012041594686684566,False,uv3z_08-31-2024.nc4,bottom
Shandian,China,51.1864620891824,129.81450669967052,129.81450669967052,51.1864620891824,129.81450669967052,2024-08-31,,,,False,uv3z_08-31-2024.nc4,bottom
Da,Vietnam,24.090105358583475,117.26377766493002,117.26377766493002,24.090105358583475,117.26377766493002,2024-08-31,,,,False,uv3z_08-31-2024.nc4,bottom
Onon,Russia,67.17026314980978,128.94297510036415,128.94297510036415,67.17026314980978,128.94297510036415,2024-08-31,,,,False,uv3z_08-31-2024.nc4,bottom
Tone,Japan,42.3890329439934,156.801221223582,156.801221223582,42.3890329439934,156.801221223582,2024-08-31,-0.10000000149011612,-0.014000000432133675,0.1009752460265533,False,uv3z_08-31-2024.nc4,bottom
Taymura,Russia,90.0,109.14647780355999,109.14647780355999,90.0,109.14647780355999,2024-08-31,0.0010000000474974513,0.0020000000949949026,0.0022360680837073196,False,uv3z_08-31-2024.nc4,bottom
Alazeya,Russia,90.0,171.05761706549677,171.05761706549677,90.0,171.05761706549677,2024-08-31,0.0010000000474974513,0.0010000000474974513,0.0014142136295446348,False,uv3z_08-31-2024.nc4,bottom
Mana,Russia,74.73367737121019,106.56873584487823,106.56873584487823,74.73367737121019,106.56873584487823,2024-08-31,,,,False,uv3z_08-31-2024.nc4,bottom
Popigay,Russia,90.0,118.12612323203707,118.12612323203707,90.0,118.12612323203707,2024-08-31,0.0010000000474974513,0.0020000000949949026,0.0022360680837073196,False,uv3z_08-31-2024.nc4,bottom
Contas,Brazil,-15.944456767187184,-43.405687153278,316.594312846722,-15.944456767187184,316.594312846722,2024-08-31,,,,False,uv3z_08-31-2024.nc4,bottom
Maicuru,Brazil,-2.422034920632211,-60.470019311056866,299.5299806889431,-2.422034920632211,299.5299806889431,2024-08-31,,,,False,uv3z_08-31-2024.nc4,bottom
Mira,Ecuador,1.9816683827905917,-87.84882521526004,272.15117478473996,1.9816683827905917,272.15117478473996,2024-08-31,-0.032999999821186066,-0.004000000189989805,0.033241540122536425,False,uv3z_08-31-2024.nc4,bottom
Copiapó,Chile,-31.4378139496515,-78.96182825946705,281.03817174053296,-31.4378139496515,281.03817174053296,2024-08-31,0.0010000000474974513,0.014000000432133675,0.014035669282037746,False,uv3z_08-31-2024.nc4,bottom
Dulce,Argentina,-35.4879011185392,-69.63958187861198,290.360418121388,-35.4879011185392,290.360418121388,2024-08-31,,,,False,uv3z_08-31-2024.nc4,bottom
Cả,Vietnam,21.016082332149296,117.7211224869684,117.7211224869684,21.016082332149296,117.7211224869684,2024-08-31,0.005000000353902578,0.009000000543892384,0.01029563078830477,False,uv3z_08-31-2024.nc4,bottom
Nakdong,South Korea,41.576767039889916,143.5579848311412,143.5579848311412,41.576767039889916,143.5579848311412,2024-08-31,0.010000000707805157,0.0,0.010000000707805157,False,uv3z_08-31-2024.nc4,bottom
Palyavaam,Russia,90.0,180.0,180.0,90.0,180.0,2024-08-31,0.0010000000474974513,0.0010000000474974513,0.0014142136295446348,False,uv3z_08-31-2024.nc4,bottom
Great Kei,South Africa,-38.29593637895625,31.57386025976404,31.57386025976404,-38.29593637895625,31.57386025976404,2024-08-31,-0.05300000309944153,0.10200000554323196,0.11494782059421642,False,uv3z_08-31-2024.nc4,bottom
Lukenie,Democratic Republic of the Congo,-3.0182260969074903,20.20725969520499,20.20725969520499,-3.0182260969074903,20.20725969520499,2024-08-31,,,,False,uv3z_08-31-2024.nc4,bottom
Kondoma,Russia,70.90736331386813,97.08690253776871,97.08690253776871,70.90736331386813,97.08690253776871,2024-08-31,,,,False,uv3z_08-31-2024.nc4,bottom
Daling,China,49.62096828652885,135.32558246701916,135.32558246701916,49.62096828652885,135.32558246701916,2024-08-31,,,,False,uv3z_08-31-2024.nc4,bottom
Bol’shoy Anyuy,Russia,90.0,179.15263128662008,179.15263128662008,90.0,179.15263128662008,2024-08-31,0.0010000000474974513,0.0010000000474974513,0.0014142136295446348,False,uv3z_08-31-2024.nc4,bottom
Aoukalé,Central African Republic,10.46792875492912,23.161302842735246,23.161302842735246,10.46792875492912,23.161302842735246,2024-08-31,,,,False,uv3z_08-31-2024.nc4,bottom
Chico,Argentina,-52.2728927636836,-78.40778550084602,281.592214499154,-52.2728927636836,281.592214499154,2024-08-31,0.021000001579523087,0.01600000075995922,0.02640075928185907,False,uv3z_08-31-2024.nc4,bottom
Tambo,Peru,-19.27829424598598,-79.98261929320616,280.01738070679386,-19.27829424598598,280.01738070679386,2024-08-31,0.1420000046491623,0.021000001579523087,0.14354442304284093,False,uv3z_08-31-2024.nc4,bottom
Pisco,Peru,-15.281760269570624,-84.84923239327429,275.1507676067257,-15.281760269570624,275.1507676067257,2024-08-31,0.06800000369548798,-0.013000000268220901,0.06923149940280163,False,uv3z_08-31-2024.nc4,bottom
Ocoña,Peru,-18.44433103356262,-81.39514839830615,278.60485160169384,-18.44433103356262,278.60485160169384,2024-08-31,0.05700000375509262,-0.005000000353902578,0.057218881775333554,False,uv3z_08-31-2024.nc4,bottom
Yapacani,Bolivia,-17.769787038770517,-71.98036225520714,288.0196377447929,-17.769787038770517,288.0196377447929,2024-08-31,-0.003000000026077032,0.0010000000474974513,0.003162277699927237,False,uv3z_08-31-2024.nc4,bottom
Una,Brazil,-9.339694635985209,-38.93442674670833,321.0655732532917,-9.339694635985209,321.0655732532917,2024-08-31,,,,False,uv3z_08-31-2024.nc4,bottom
Piauí,Brazil,-6.935719869509,-47.69980389749648,312.3001961025035,-6.935719869509,312.3001961025035,2024-08-31,,,,False,uv3z_08-31-2024.nc4,bottom
Olifants,South Africa,-36.998768065185246,20.248297886390983,20.248297886390983,-36.998768065185246,20.248297886390983,2024-08-31,0.014000000432133675,0.015000000596046448,0.02051828525927878,False,uv3z_08-31-2024.nc4,bottom
Alima,Republic of the Congo,-1.758652380628612,18.505125977338114,18.505125977338114,-1.758652380628612,18.505125977338114,2024-08-31,,,,False,uv3z_08-31-2024.nc4,bottom
Ebola,Democratic Republic of the Congo,3.675868923315426,23.228159763475354,23.228159763475354,3.675868923315426,23.228159763475354,2024-08-31,,,,False,uv3z_08-31-2024.nc4,bottom
Lua,Democratic Republic of the Congo,3.03713211531545,20.500234331618923,20.500234331618923,3.03713211531545,20.500234331618923,2024-08-31,,,,False,uv3z_08-31-2024.nc4,bottom
Chinko,Central African Republic,5.34014099198947,26.591117231922542,26.591117231922542,5.34014099198947,26.591117231922542,2024-08-31,,,,False,uv3z_08-31-2024.nc4,bottom
Baoulé,Mali,15.137641135974205,-11.008481196838614,348.9915188031614,15.137641135974205,348.9915188031614,2024-08-31,,,,False,uv3z_08-31-2024.nc4,bottom
Oued Sebou,Morocco,40.40640591236647,-7.430956496991795,352.56904350300823,40.40640591236647,352.56904350300823,2024-08-31,,,,False,uv3z_08-31-2024.nc4,bottom
Lucala,Angola,-10.700629677518577,15.851341065716994,15.851341065716994,-10.700629677518577,15.851341065716994,2024-08-31,,,,False,uv3z_08-31-2024.nc4,bottom
Ngounie,Gabon,-0.6547442679569601,11.461069937117042,11.461069937117042,-0.6547442679569601,11.461069937117042,2024-08-31,,,,False,uv3z_08-31-2024.nc4,bottom
Ribeira,Brazil,-28.22149053240259,-52.938179525533656,307.06182047446634,-28.22149053240259,307.06182047446634,2024-08-31,,,,False,uv3z_08-31-2024.nc4,bottom
Zuo,China,25.966247169387625,120.32778142275073,120.32778142275073,25.966247169387625,120.32778142275073,2024-08-31,0.0,0.07600000500679016,0.07600000500679016,False,uv3z_08-31-2024.nc4,bottom
Duliu,China,29.373979799066404,121.84945580983944,121.84945580983944,29.373979799066404,121.84945580983944,2024-08-31,,,,False,uv3z_08-31-2024.nc4,bottom
Mogami,Japan,46.824648968634754,155.64236793075358,155.64236793075358,46.824648968634754,155.64236793075358,2024-08-31,0.0430000014603138,0.2150000035762787,0.2192578428777106,False,uv3z_08-31-2024.nc4,bottom
Ituxi,Brazil,-8.081601298526772,-72.18019922195593,287.81980077804405,-8.081601298526772,287.81980077804405,2024-08-31,,,,False,uv3z_08-31-2024.nc4,bottom
Saint Paul,Liberia,7.096352444700572,-11.977281462538757,348.02271853746123,7.096352444700572,348.02271853746123,2024-08-31,0.0,-0.015000000596046448,0.015000000596046448,False,uv3z_08-31-2024.nc4,bottom
Lobaye,Central African Republic,4.067858479324763,20.703903341385693,20.703903341385693,4.067858479324763,20.703903341385693,2024-08-31,,,,False,uv3z_08-31-2024.nc4,bottom
Dja,Cameroon,1.8298830989913946,17.888302939485513,17.888302939485513,1.8298830989913946,17.888302939485513,2024-08-31,,,,False,uv3z_08-31-2024.nc4,bottom
Sankuru,Democratic Republic of the Congo,-4.735216429989945,22.70216429843314,22.70216429843314,-4.735216429989945,22.70216429843314,2024-08-31,,,,False,uv3z_08-31-2024.nc4,bottom
Kwilu,Democratic Republic of the Congo,-3.5295687314304938,19.31501875703527,19.31501875703527,-3.5295687314304938,19.31501875703527,2024-08-31,,,,False,uv3z_08-31-2024.nc4,bottom
Chambeshi,Zambia,-13.254948939826738,33.1605978453291,33.1605978453291,-13.254948939826738,33.1605978453291,2024-08-31,,,,False,uv3z_08-31-2024.nc4,bottom
Inkisi,Democratic Republic of the Congo,-5.269796877084303,16.545620292231906,16.545620292231906,-5.269796877084303,16.545620292231906,2024-08-31,,,,False,uv3z_08-31-2024.nc4,bottom
Shama,United Republic of Tanzania,-6.877763870924462,35.987612843453206,35.987612843453206,-6.877763870924462,35.987612843453206,2024-08-31,,,,False,uv3z_08-31-2024.nc4,bottom
Malagarasi,United Republic of Tanzania,-5.527904591673034,34.46419908932084,34.46419908932084,-5.527904591673034,34.46419908932084,2024-08-31,,,,False,uv3z_08-31-2024.nc4,bottom
Erdao,China,52.17450698208653,141.79439721277475,141.79439721277475,52.17450698208653,141.79439721277475,2024-08-31,,,,False,uv3z_08-31-2024.nc4,bottom
Nanweng,China,65.91374048879288,140.30767323221923,140.30767323221923,65.91374048879288,140.30767323221923,2024-08-31,,,,False,uv3z_08-31-2024.nc4,bottom
Chuna,Russia,78.7516918388071,106.27831590380964,106.27831590380964,78.7516918388071,106.27831590380964,2024-08-31,0.003000000026077032,-0.006000000052154064,0.006708203990809385,False,uv3z_08-31-2024.nc4,bottom
Severnaya Sos’va,Russia,90.0,72.8669774280951,72.8669774280951,90.0,72.8669774280951,2024-08-31,0.0,0.0,0.0,False,uv3z_08-31-2024.nc4,bottom
Amgun’,Russia,69.40217037552245,155.52039481681803,155.52039481681803,69.40217037552245,155.52039481681803,2024-08-31,,,,False,uv3z_08-31-2024.nc4,bottom
Moma,Russia,90.0,159.33352221824853,159.33352221824853,90.0,159.33352221824853,2024-08-31,0.0010000000474974513,0.0010000000474974513,0.0014142136295446348,False,uv3z_08-31-2024.nc4,bottom
Adycha,Russia,90.0,150.04823738707094,150.04823738707094,90.0,150.04823738707094,2024-08-31,0.0010000000474974513,0.0010000000474974513,0.0014142136295446348,False,uv3z_08-31-2024.nc4,bottom
Chaor,China,59.02680704629073,137.50087837597755,137.50087837597755,59.02680704629073,137.50087837597755,2024-08-31,,,,False,uv3z_08-31-2024.nc4,bottom
Bikin,Russia,58.87156753127873,149.21181925995816,149.21181925995816,58.87156753127873,149.21181925995816,2024-08-31,-0.07900000363588333,-0.009000000543892384,0.07951100920161712,False,uv3z_08-31-2024.nc4,bottom
Maya,Russia,84.6200886993678,149.78450585907825,149.78450585907825,84.6200886993678,149.78450585907825,2024-08-31,0.014000000432133675,0.01900000125169754,0.023600848706439588,False,uv3z_08-31-2024.nc4,bottom
Kukhtuy,Russia,82.26970554694296,159.42320833143648,159.42320833143648,82.26970554694296,159.42320833143648,2024-08-31,-0.0020000000949949026,-0.005000000353902578,0.00538516517100502,False,uv3z_08-31-2024.nc4,bottom
Jiparaná,Brazil,-8.90665481619189,-70.00577299651934,289.99422700348066,-8.90665481619189,289.99422700348066,2024-08-31,,,,False,uv3z_08-31-2024.nc4,bottom
Ventuari,Venezuela,4.380469625676409,-74.65004606871157,285.34995393128844,4.380469625676409,285.34995393128844,2024-08-31,,,,False,uv3z_08-31-2024.nc4,bottom
Nhamundá,Brazil,-2.6739490600681157,-64.08888115580031,295.9111188441997,-2.6739490600681157,295.9111188441997,2024-08-31,,,,False,uv3z_08-31-2024.nc4,bottom
Itiquira,Brazil,-19.16117086378552,-62.9953628375488,297.0046371624512,-19.16117086378552,297.0046371624512,2024-08-31,,,,False,uv3z_08-31-2024.nc4,bottom
Ivinheima,Brazil,-26.1626098207859,-59.70790476983982,300.29209523016016,-26.1626098207859,300.29209523016016,2024-08-31,,,,False,uv3z_08-31-2024.nc4,bottom
Verde,Brazil,-21.540281379063703,-56.394274663645994,303.605725336354,-21.540281379063703,303.605725336354,2024-08-31,,,,False,uv3z_08-31-2024.nc4,bottom
Bermejo,Argentina,-30.891994594639065,-64.96391866680396,295.036081333196,-30.891994594639065,295.036081333196,2024-08-31,,,,False,uv3z_08-31-2024.nc4,bottom
Gongola,Nigeria,10.513228586929515,13.38578828135035,13.38578828135035,10.513228586929515,13.38578828135035,2024-08-31,,,,False,uv3z_08-31-2024.nc4,bottom
Molopo,South Africa,-32.93521156628227,22.49697334250316,22.49697334250316,-32.93521156628227,22.49697334250316,2024-08-31,,,,False,uv3z_08-31-2024.nc4,bottom
Auob,Namibia,-29.534260353502678,22.263898158654715,22.263898158654715,-29.534260353502678,22.263898158654715,2024-08-31,,,,False,uv3z_08-31-2024.nc4,bottom
Onilahy,Madagascar,-26.84312971615964,48.70184238029628,48.70184238029628,-26.84312971615964,48.70184238029628,2024-08-31,-0.007000000216066837,-0.018000001087784767,0.019313209007961067,False,uv3z_08-31-2024.nc4,bottom
Wei,China,40.88510402228846,122.77811474548548,122.77811474548548,40.88510402228846,122.77811474548548,2024-08-31,,,,False,uv3z_08-31-2024.nc4,bottom
Vakh,Russia,85.51222129956476,85.49994591086788,85.49994591086788,85.51222129956476,85.49994591086788,2024-08-31,-0.009000000543892384,-0.006000000052154064,0.010816654307867659,False,uv3z_08-31-2024.nc4,bottom
Za’gya,China,37.3242159006666,99.07679279091859,99.07679279091859,37.3242159006666,99.07679279091859,2024-08-31,,,,False,uv3z_08-31-2024.nc4,bottom
Harirud,Afghanistan,45.68723457506064,66.93921454335329,66.93921454335329,45.68723457506064,66.93921454335329,2024-08-31,,,,False,uv3z_08-31-2024.nc4,bottom
Yurungkax,China,45.29660513593199,89.54044119803487,89.54044119803487,45.29660513593199,89.54044119803487,2024-08-31,,,,False,uv3z_08-31-2024.nc4,bottom
Zarafshon,Uzbekistan,47.09704957188896,70.87496732136077,70.87496732136077,47.09704957188896,70.87496732136077,2024-08-31,,,,False,uv3z_08-31-2024.nc4,bottom
Dali,China,45.46876806572727,122.38159341475455,122.38159341475455,45.46876806572727,122.38159341475455,2024-08-31,,,,False,uv3z_08-31-2024.nc4,bottom
Jing,China,40.67909527732662,121.41727745471381,121.41727745471381,40.67909527732662,121.41727745471381,2024-08-31,-0.027000000700354576,-0.1210000067949295,0.12397581087531605,False,uv3z_08-31-2024.nc4,bottom
Dam,China,40.176122217414004,103.44831136857923,103.44831136857923,40.176122217414004,103.44831136857923,2024-08-31,,,,False,uv3z_08-31-2024.nc4,bottom
Mytinge,Myanmar,24.804586377337454,106.85230702821244,106.85230702821244,24.804586377337454,106.85230702821244,2024-08-31,,,,False,uv3z_08-31-2024.nc4,bottom
Qin,China,41.349173557595776,126.29370167201256,126.29370167201256,41.349173557595776,126.29370167201256,2024-08-31,,,,False,uv3z_08-31-2024.nc4,bottom
Ou,China,32.43148264879883,134.21744259455699,134.21744259455699,32.43148264879883,134.21744259455699,2024-08-31,0.0,0.0,0.0,False,uv3z_08-31-2024.nc4,bottom
Wainganga,India,21.20758720902957,88.96308004998501,88.96308004998501,21.20758720902957,88.96308004998501,2024-08-31,-0.03700000047683716,-0.1720000058412552,0.1759346527682303,False,uv3z_08-31-2024.nc4,bottom
Toxkan,China,50.097729560305716,89.1034252283191,89.1034252283191,50.097729560305716,89.1034252283191,2024-08-31,,,,False,uv3z_08-31-2024.nc4,bottom
Banas,India,29.71254222563313,85.42602281151296,85.42602281151296,29.71254222563313,85.42602281151296,2024-08-31,,,,False,uv3z_08-31-2024.nc4,bottom
Tel,India,23.576344903667085,93.45428882233648,93.45428882233648,23.576344903667085,93.45428882233648,2024-08-31,,,,False,uv3z_08-31-2024.nc4,bottom
Zayü,China,32.952551917963895,108.07339704807129,108.07339704807129,32.952551917963895,108.07339704807129,2024-08-31,,,,False,uv3z_08-31-2024.nc4,bottom
Zhang,China,43.915936104601045,128.77501747021222,128.77501747021222,43.915936104601045,128.77501747021222,2024-08-31,,,,False,uv3z_08-31-2024.nc4,bottom
Orhon,Mongolia,64.57503280671514,118.17161855127243,118.17161855127243,64.57503280671514,118.17161855127243,2024-08-31,,,,False,uv3z_08-31-2024.nc4,bottom
Cagayan,Philippines,20.609131013758468,135.4114637147991,135.4114637147991,20.609131013758468,135.4114637147991,2024-08-31,0.0010000000474974513,0.07100000232458115,0.07100704422932645,False,uv3z_08-31-2024.nc4,bottom
Palar,India,13.891434467680273,89.22202831860766,89.22202831860766,13.891434467680273,89.22202831860766,2024-08-31,0.06100000441074371,-0.04000000283122063,0.07294519014032666,False,uv3z_08-31-2024.nc4,bottom
Tyung,Russia,90.0,135.2512245259033,135.2512245259033,90.0,135.2512245259033,2024-08-31,0.0010000000474974513,0.0010000000474974513,0.0014142136295446348,False,uv3z_08-31-2024.nc4,bottom
Dulgalakh,Russia,90.0,148.29560766971824,148.29560766971824,90.0,148.29560766971824,2024-08-31,0.0010000000474974513,0.0010000000474974513,0.0014142136295446348,False,uv3z_08-31-2024.nc4,bottom
Oloy,Russia,90.0,177.4515846731555,177.4515846731555,90.0,177.4515846731555,2024-08-31,0.0010000000474974513,0.0010000000474974513,0.0014142136295446348,False,uv3z_08-31-2024.nc4,bottom
Bahr Aouk,Central African Republic,10.46792875492912,23.161302842735246,23.161302842735246,10.46792875492912,23.161302842735246,2024-08-31,,,,False,uv3z_08-31-2024.nc4,bottom
Luan,China,47.56396175673236,132.80869057694548,132.80869057694548,47.56396175673236,132.80869057694548,2024-08-31,,,,False,uv3z_08-31-2024.nc4,bottom
Udzha,Russia,90.0,127.12827172164143,127.12827172164143,90.0,127.12827172164143,2024-08-31,0.0010000000474974513,0.0020000000949949026,0.0022360680837073196,False,uv3z_08-31-2024.nc4,bottom
Santa,Peru,-11.146919885083515,-85.97982097164348,274.02017902835655,-11.146919885083515,274.02017902835655,2024-08-31,-0.00800000037997961,0.024000000208616257,0.025298221599417896,False,uv3z_08-31-2024.nc4,bottom
Maputo,South Africa,-30.036314731458607,36.37875300739288,36.37875300739288,-30.036314731458607,36.37875300739288,2024-08-31,-0.017000000923871994,-0.07100000232458115,0.0730068514695859,False,uv3z_08-31-2024.nc4,bottom
Mongala,Democratic Republic of the Congo,2.0364435068904934,22.030877330026442,22.030877330026442,2.0364435068904934,22.030877330026442,2024-08-31,,,,False,uv3z_08-31-2024.nc4,bottom
Bakoy,Mali,15.137641135974205,-11.008481196838614,348.9915188031614,15.137641135974205,348.9915188031614,2024-08-31,,,,False,uv3z_08-31-2024.nc4,bottom
Liu,China,27.11384509054859,121.9266402224012,121.9266402224012,27.11384509054859,121.9266402224012,2024-08-31,-0.013000000268220901,0.1290000081062317,0.12965339215917795,False,uv3z_08-31-2024.nc4,bottom
Rong,China,27.87010891444893,121.88679784605772,121.88679784605772,27.87010891444893,121.88679784605772,2024-08-31,0.04700000211596489,0.12800000607967377,0.13635615774616572,False,uv3z_08-31-2024.nc4,bottom
Komadugu Yobe,Niger,15.280357332473779,14.828375823173337,14.828375823173337,15.280357332473779,14.828375823173337,2024-08-31,,,,False,uv3z_08-31-2024.nc4,bottom
Komadugu Yobe,Nigeria,14.213942284677875,11.942928963426791,11.942928963426791,14.213942284677875,11.942928963426791,2024-08-31,,,,False,uv3z_08-31-2024.nc4,bottom
Ugalla,United Republic of Tanzania,-6.877763870924462,35.987612843453206,35.987612843453206,-6.877763870924462,35.987612843453206,2024-08-31,,,,False,uv3z_08-31-2024.nc4,bottom
Nen,China,58.839364933444436,137.4415224756131,137.4415224756131,58.839364933444436,137.4415224756131,2024-08-31,,,,False,uv3z_08-31-2024.nc4,bottom
Casiquiare,Venezuela,2.225467600624554,-74.72646950819173,285.2735304918083,2.225467600624554,285.2735304918083,2024-08-31,,,,False,uv3z_08-31-2024.nc4,bottom
Ibicuí,Brazil,-34.07587926103878,-63.20734819599301,296.792651804007,-34.07587926103878,296.792651804007,2024-08-31,,,,False,uv3z_08-31-2024.nc4,bottom
Wuding,China,45.46876806572727,122.38159341475455,122.38159341475455,45.46876806572727,122.38159341475455,2024-08-31,,,,False,uv3z_08-31-2024.nc4,bottom
Aksu,China,50.097729560305716,89.1034252283191,89.1034252283191,50.097729560305716,89.1034252283191,2024-08-31,,,,False,uv3z_08-31-2024.nc4,bottom
Luhit,India,32.093508710187685,106.26499887488171,106.26499887488171,32.093508710187685,106.26499887488171,2024-08-31,,,,False,uv3z_08-31-2024.nc4,bottom
Kureyka,Russia,90.0,97.08440219764348,97.08440219764348,90.0,97.08440219764348,2024-08-31,0.0,0.0010000000474974513,0.0010000000474974513,False,uv3z_08-31-2024.nc4,bottom
Uda,Russia,71.37166958049066,145.2754685745294,145.2754685745294,71.37166958049066,145.2754685745294,2024-08-31,,,,False,uv3z_08-31-2024.nc4,bottom
Tumnin,Russia,65.67731435907115,154.53960922508276,154.53960922508276,65.67731435907115,154.53960922508276,2024-08-31,,,,False,uv3z_08-31-2024.nc4,bottom
Poronay,Russia,64.96721777197052,159.29166869876084,159.29166869876084,64.96721777197052,159.29166869876084,2024-08-31,,,,False,uv3z_08-31-2024.nc4,bottom
Kouilou,Republic of the Congo,-4.9274508091644105,13.014433417532189,13.014433417532189,-4.9274508091644105,13.014433417532189,2024-08-31,,,,False,uv3z_08-31-2024.nc4,bottom
Asahan,Indonesia,2.671882717356468,110.3715357544871,110.3715357544871,2.671882717356468,110.3715357544871,2024-08-31,-0.014000000432133675,-0.029000001028180122,0.03220248549000824,False,uv3z_08-31-2024.nc4,bottom
Fimi,Democratic Republic of the Congo,-3.328314519129203,18.88669962253771,18.88669962253771,-3.328314519129203,18.88669962253771,2024-08-31,,,,False,uv3z_08-31-2024.nc4,bottom
Luapula,Zambia,-13.254948939826738,33.1605978453291,33.1605978453291,-13.254948939826738,33.1605978453291,2024-08-31,,,,False,uv3z_08-31-2024.nc4,bottom
Malagarasi,United Republic of Tanzania,-5.732646542545886,34.191172818688706,34.191172818688706,-5.732646542545886,34.191172818688706,2024-08-31,,,,False,uv3z_08-31-2024.nc4,bottom
Di’er Songhua,China,56.622550663361494,138.7870859495328,138.7870859495328,56.622550663361494,138.7870859495328,2024-08-31,-0.08800000697374344,-0.20000000298023224,0.2185040100764098,False,uv3z_08-31-2024.nc4,bottom
Kolidam,India,12.092478347636005,87.58392505003494,87.58392505003494,12.092478347636005,87.58392505003494,2024-08-31,-0.007000000216066837,0.017000000923871994,0.01838477724740184,False,uv3z_08-31-2024.nc4,bottom
Jhelum,Pakistan,39.145170923041974,81.92864488372412,81.92864488372412,39.145170923041974,81.92864488372412,2024-08-31,,,,False,uv3z_08-31-2024.nc4,bottom
Jhelum,Pakistan,38.9083548168113,81.9789778175496,81.9789778175496,38.9083548168113,81.9789778175496,2024-08-31,,,,False,uv3z_08-31-2024.nc4,bottom
Guaporé,Brazil,-16.622522430165432,-66.79161294313397,293.20838705686606,-16.622522430165432,293.20838705686606,2024-08-31,,,,False,uv3z_08-31-2024.nc4,bottom
Kabalebo,Suriname,3.859417032221082,-64.17851291376813,295.82148708623185,3.859417032221082,295.82148708623185,2024-08-31,,,,False,uv3z_08-31-2024.nc4,bottom
Katanga,Russia,78.59080023829658,116.1575402251719,116.1575402251719,78.59080023829658,116.1575402251719,2024-08-31,0.005000000353902578,0.0020000000949949026,0.00538516517100502,False,uv3z_08-31-2024.nc4,bottom
Kaduna,Nigeria,11.666130952681199,6.774454148456112,6.774454148456112,11.666130952681199,6.774454148456112,2024-08-31,,,,False,uv3z_08-31-2024.nc4,bottom
Ouémé,Benin,7.096352444700572,2.833537624537769,2.833537624537769,7.096352444700572,2.833537624537769,2024-08-31,,,,False,uv3z_08-31-2024.nc4,bottom
Ouémé,Benin,7.041639860261583,2.8434846298186387,2.8434846298186387,7.041639860261583,2.8434846298186387,2024-08-31,,,,False,uv3z_08-31-2024.nc4,bottom
Komoé,Ivory Coast,5.7717241408888125,-4.137899841611077,355.8621001583889,5.7717241408888125,355.8621001583889,2024-08-31,,,,False,uv3z_08-31-2024.nc4,bottom
Chulym,Russia,78.97456583556153,94.64559218157291,94.64559218157291,78.97456583556153,94.64559218157291,2024-08-31,0.02500000037252903,-0.03700000047683716,0.04465422772719736,False,uv3z_08-31-2024.nc4,bottom
Verkhnyaya Taymyra,Russia,90.0,111.07641424892422,111.07641424892422,90.0,111.07641424892422,2024-08-31,0.0010000000474974513,0.0020000000949949026,0.0022360680837073196,False,uv3z_08-31-2024.nc4,bottom
Vitim,Russia,82.31036247724816,125.5399034794729,125.5399034794729,82.31036247724816,125.5399034794729,2024-08-31,0.0020000000949949026,0.005000000353902578,0.00538516517100502,False,uv3z_08-31-2024.nc4,bottom
Fuchun,China,34.18877933918637,132.6878867005517,132.6878867005517,34.18877933918637,132.6878867005517,2024-08-31,,,,False,uv3z_08-31-2024.nc4,bottom
Fuchun,China,35.072582942952664,133.7491723732757,133.7491723732757,35.072582942952664,133.7491723732757,2024-08-31,,,,False,uv3z_08-31-2024.nc4,bottom
Mae Klong,Thailand,16.831467103164275,110.24988877187222,110.24988877187222,16.831467103164275,110.24988877187222,2024-08-31,0.027000000700354576,0.0020000000949949026,0.027073973446820235,False,uv3z_08-31-2024.nc4,bottom
Mae Klong,Thailand,14.92390389836522,111.32101273943678,111.32101273943678,14.92390389836522,111.32101273943678,2024-08-31,0.03100000135600567,0.015000000596046448,0.03443835219568072,False,uv3z_08-31-2024.nc4,bottom
Yom,Thailand,20.2896677924532,112.0014313848226,112.0014313848226,20.2896677924532,112.0014313848226,2024-08-31,-0.0020000000949949026,-0.01900000125169754,0.01910497442930735,False,uv3z_08-31-2024.nc4,bottom
Yom,Thailand,17.59205126272598,111.47614253764188,111.47614253764188,17.59205126272598,111.47614253764188,2024-08-31,0.0,0.03100000135600567,0.03100000135600567,False,uv3z_08-31-2024.nc4,bottom
Cunene,Angola,-19.176994583324802,16.40141589326969,16.40141589326969,-19.176994583324802,16.40141589326969,2024-08-31,,,,False,uv3z_08-31-2024.nc4,bottom
Cunene,Angola,-19.37602188940976,13.097977390847234,13.097977390847234,-19.37602188940976,13.097977390847234,2024-08-31,,,,False,uv3z_08-31-2024.nc4,bottom
Río Negro,Uruguay,-37.980925969202715,-61.72135801090907,298.27864198909094,-37.980925969202715,298.27864198909094,2024-08-31,,,,False,uv3z_08-31-2024.nc4,bottom
Río Negro,Uruguay,-38.602585898091185,-63.246973151456054,296.7530268485439,-38.602585898091185,296.7530268485439,2024-08-31,,,,False,uv3z_08-31-2024.nc4,bottom
Paranapanema,Brazil,-26.08336078886813,-56.23699783424644,303.76300216575356,-26.08336078886813,303.76300216575356,2024-08-31,,,,False,uv3z_08-31-2024.nc4,bottom
Paranapanema,Brazil,-26.40235664538994,-54.80212873367963,305.19787126632036,-26.40235664538994,305.19787126632036,2024-08-31,,,,False,uv3z_08-31-2024.nc4,bottom
Tana,Kenya,-0.8697536801801692,42.012236730438,42.012236730438,-0.8697536801801692,42.012236730438,2024-08-31,,,,False,uv3z_08-31-2024.nc4,bottom
Tana,Kenya,-0.8751533335525232,41.513799361993506,41.513799361993506,-0.8751533335525232,41.513799361993506,2024-08-31,,,,False,uv3z_08-31-2024.nc4,bottom
Rusizi,United Republic of Tanzania,-6.033391949694259,32.89458339809168,32.89458339809168,-6.033391949694259,32.89458339809168,2024-08-31,,,,False,uv3z_08-31-2024.nc4,bottom
Rusizi,Democratic Republic of the Congo,-2.740311782569643,32.1425245725957,32.1425245725957,-2.740311782569643,32.1425245725957,2024-08-31,,,,False,uv3z_08-31-2024.nc4,bottom
Cauvery,India,13.334975999817338,86.46730576323506,86.46730576323506,13.334975999817338,86.46730576323506,2024-08-31,0.06599999964237213,0.039000000804662704,0.07666159413654801,False,uv3z_08-31-2024.nc4,bottom
Cauvery,India,12.033093633520384,87.81074938357027,87.81074938357027,12.033093633520384,87.81074938357027,2024-08-31,0.0,0.029000001028180122,0.029000001028180122,False,uv3z_08-31-2024.nc4,bottom
Chambal,India,28.26450275294737,84.05426012149843,84.05426012149843,28.26450275294737,84.05426012149843,2024-08-31,,,,False,uv3z_08-31-2024.nc4,bottom
Chambal,India,30.42336990119442,88.21498915555735,88.21498915555735,30.42336990119442,88.21498915555735,2024-08-31,,,,False,uv3z_08-31-2024.nc4,bottom
Zeya,Russia,72.56078456794229,143.87147323898728,143.87147323898728,72.56078456794229,143.87147323898728,2024-08-31,,,,False,uv3z_08-31-2024.nc4,bottom
Zeya,Russia,64.49106061559031,142.02529818781858,142.02529818781858,64.49106061559031,142.02529818781858,2024-08-31,,,,False,uv3z_08-31-2024.nc4,bottom
Pangani,United Republic of Tanzania,-3.9925612071258736,41.56880684474878,41.56880684474878,-3.9925612071258736,41.56880684474878,2024-08-31,0.04000000283122063,-0.012000000104308128,0.04176122877743246,False,uv3z_08-31-2024.nc4,bottom
Pangani,United Republic of Tanzania,-6.004482863903482,43.39476175403512,43.39476175403512,-6.004482863903482,43.39476175403512,2024-08-31,0.04000000283122063,0.08400000631809235,0.093037633718497,False,uv3z_08-31-2024.nc4,bottom
Caroní,Venezuela,8.622941917993101,-70.12807224177561,289.8719277582244,8.622941917993101,289.8719277582244,2024-08-31,,,,False,uv3z_08-31-2024.nc4,bottom
Caroní,Venezuela,8.622941917993101,-70.12807224177561,289.8719277582244,8.622941917993101,289.8719277582244,2024-08-31,,,,False,uv3z_08-31-2024.nc4,bottom
Bandama,Ivory Coast,7.057042517940607,-5.804974442504485,354.1950255574955,7.057042517940607,354.1950255574955,2024-08-31,,,,False,uv3z_08-31-2024.nc4,bottom
Bandama,Ivory Coast,6.885029112746658,-5.655225811090682,354.3447741889093,6.885029112746658,354.3447741889093,2024-08-31,,,,False,uv3z_08-31-2024.nc4,bottom
Hudi,China,38.34876284313052,132.78654142505843,132.78654142505843,38.34876284313052,132.78654142505843,2024-08-31,0.030000001192092896,-0.06200000271201134,0.06887670439136144,False,uv3z_08-31-2024.nc4,bottom
Hudi,China,37.86997980805007,133.156156921833,133.156156921833,37.86997980805007,133.156156921833,2024-08-31,-0.004000000189989805,-0.04200000315904617,0.0421900493822869,False,uv3z_08-31-2024.nc4,bottom
Ping,Thailand,19.358529551819554,110.1603657243446,110.1603657243446,19.358529551819554,110.1603657243446,2024-08-31,,,,False,uv3z_08-31-2024.nc4,bottom
Ping,Thailand,17.603330264107584,111.49641703474434,111.49641703474434,17.603330264107584,111.49641703474434,2024-08-31,-0.003000000026077032,-0.003000000026077032,0.004242640723997777,False,uv3z_08-31-2024.nc4,bottom
Ile,Kazakhstan,54.21584800541077,85.86504992437301,85.86504992437301,54.21584800541077,85.86504992437301,2024-08-31,,,,False,uv3z_08-31-2024.nc4,bottom
Ile,Kazakhstan,54.21584800541077,85.86504992437301,85.86504992437301,54.21584800541077,85.86504992437301,2024-08-31,,,,False,uv3z_08-31-2024.nc4,bottom
Sanggan,China,48.7333350916897,128.67321014293884,128.67321014293884,48.7333350916897,128.67321014293884,2024-08-31,,,,False,uv3z_08-31-2024.nc4,bottom
Sanggan,China,48.81447558017951,128.65663180080412,128.65663180080412,48.81447558017951,128.65663180080412,2024-08-31,,,,False,uv3z_08-31-2024.nc4,bottom
Wujia,China,49.71675498128038,121.18605034834928,121.18605034834928,49.71675498128038,121.18605034834928,2024-08-31,,,,False,uv3z_08-31-2024.nc4,bottom
Wujia,China,49.843483031229404,121.09810360220499,121.09810360220499,49.843483031229404,121.09810360220499,2024-08-31,,,,False,uv3z_08-31-2024.nc4,bottom
Trombetas,Brazil,-1.9674204672252995,-62.20221146564673,297.7977885343533,-1.9674204672252995,297.7977885343533,2024-08-31,,,,False,uv3z_08-31-2024.nc4,bottom
Trombetas,Brazil,-1.9674204672252995,-62.20221146564673,297.7977885343533,-1.9674204672252995,297.7977885343533,2024-08-31,,,,False,uv3z_08-31-2024.nc4,bottom
Nizhnyaya Taymyra,Russia,90.0,111.07641424892422,111.07641424892422,90.0,111.07641424892422,2024-08-31,0.0010000000474974513,0.0020000000949949026,0.0022360680837073196,False,uv3z_08-31-2024.nc4,bottom
Nizhnyaya Taymyra,Russia,90.0,110.6782079063698,110.6782079063698,90.0,110.6782079063698,2024-08-31,0.0010000000474974513,0.0020000000949949026,0.0022360680837073196,False,uv3z_08-31-2024.nc4,bottom
Gambia,Senegal,15.06370107602352,-17.032316933131746,342.96768306686823,15.06370107602352,342.96768306686823,2024-08-31,0.009000000543892384,0.012000000104308128,0.015000000409781937,False,uv3z_08-31-2024.nc4,bottom
Apure,Venezuela,8.86759806413385,-75.28461608593132,284.7153839140687,8.86759806413385,284.7153839140687,2024-08-31,,,,False,uv3z_08-31-2024.nc4,bottom
Jari,Brazil,-1.280580511031269,-57.78405610912835,302.21594389087164,-1.280580511031269,302.21594389087164,2024-08-31,,,,False,uv3z_08-31-2024.nc4,bottom
Napo,Peru,-3.815669640407135,-80.89108526457986,279.10891473542017,-3.815669640407135,279.10891473542017,2024-08-31,0.0,0.014000000432133675,0.014000000432133675,False,uv3z_08-31-2024.nc4,bottom
Juruá,Brazil,-2.88731508100724,-73.18196592865516,286.81803407134487,-2.88731508100724,286.81803407134487,2024-08-31,,,,False,uv3z_08-31-2024.nc4,bottom
Parnaíba,Brazil,-3.058928975365437,-46.57921667962823,313.42078332037175,-3.058928975365437,313.42078332037175,2024-08-31,,,,False,uv3z_08-31-2024.nc4,bottom
Bandama Blanc,Ivory Coast,8.981903540069126,-6.094579055271386,353.90542094472863,8.981903540069126,353.90542094472863,2024-08-31,,,,False,uv3z_08-31-2024.nc4,bottom
Bomu,Democratic Republic of the Congo,4.576223949121478,24.960188852404883,24.960188852404883,4.576223949121478,24.960188852404883,2024-08-31,,,,False,uv3z_08-31-2024.nc4,bottom
Mbam,Cameroon,4.872849641579484,12.556871174613326,12.556871174613326,4.872849641579484,12.556871174613326,2024-08-31,,,,False,uv3z_08-31-2024.nc4,bottom
Aïna,Gabon,1.302978827675619,14.615303360326834,14.615303360326834,1.302978827675619,14.615303360326834,2024-08-31,,,,False,uv3z_08-31-2024.nc4,bottom
Cuanza,Angola,-10.36337571212405,14.631229439820235,14.631229439820235,-10.36337571212405,14.631229439820235,2024-08-31,,,,False,uv3z_08-31-2024.nc4,bottom
Cuando,Angola,-16.771220505621685,22.709067411387583,22.709067411387583,-16.771220505621685,22.709067411387583,2024-08-31,,,,False,uv3z_08-31-2024.nc4,bottom
Marico,Botswana,-27.042398051073082,30.01343060073412,30.01343060073412,-27.042398051073082,30.01343060073412,2024-08-31,,,,False,uv3z_08-31-2024.nc4,bottom
Luwegu,United Republic of Tanzania,-10.094222588167316,41.4910788799859,41.4910788799859,-10.094222588167316,41.4910788799859,2024-08-31,0.06100000441074371,-0.013000000268220901,0.06236986888782512,False,uv3z_08-31-2024.nc4,bottom
Akobo,Ethiopia,8.783005653128022,36.72347381335521,36.72347381335521,8.783005653128022,36.72347381335521,2024-08-31,,,,False,uv3z_08-31-2024.nc4,bottom
Ghäghara,India,29.485805470689442,94.30223025611335,94.30223025611335,29.485805470689442,94.30223025611335,2024-08-31,,,,False,uv3z_08-31-2024.nc4,bottom
Chindwin,Myanmar,24.29368503092526,106.0573619340466,106.0573619340466,24.29368503092526,106.0573619340466,2024-08-31,,,,False,uv3z_08-31-2024.nc4,bottom
Krong,Vietnam,14.770529382154054,119.53191228984298,119.53191228984298,14.770529382154054,119.53191228984298,2024-08-31,-0.010000000707805157,0.023000001907348633,0.025079874439361622,False,uv3z_08-31-2024.nc4,bottom
Wu,China,34.477421302964544,119.55985087298157,119.55985087298157,34.477421302964544,119.55985087298157,2024-08-31,,,,False,uv3z_08-31-2024.nc4,bottom
Xiang,China,33.736229855099175,125.78384970734412,125.78384970734412,33.736229855099175,125.78384970734412,2024-08-31,0.1290000081062317,-0.02500000037252903,0.13140016023595363,False,uv3z_08-31-2024.nc4,bottom
Huai,China,38.063303976960704,129.71101436057364,129.71101436057364,38.063303976960704,129.71101436057364,2024-08-31,-0.049000002443790436,0.0,0.049000002443790436,False,uv3z_08-31-2024.nc4,bottom
Ingoda,Russia,67.16527446231373,128.93982249759753,128.93982249759753,67.16527446231373,128.93982249759753,2024-08-31,,,,False,uv3z_08-31-2024.nc4,bottom
Olëkma,Russia,84.53652770884054,134.31120534925344,134.31120534925344,84.53652770884054,134.31120534925344,2024-08-31,0.004000000189989805,0.0,0.004000000189989805,False,uv3z_08-31-2024.nc4,bottom
Künes,China,53.77439225279691,91.00640148450684,91.00640148450684,53.77439225279691,91.00640148450684,2024-08-31,,,,False,uv3z_08-31-2024.nc4,bottom
Sartang,Russia,90.0,149.62502764326413,149.62502764326413,90.0,149.62502764326413,2024-08-31,0.0010000000474974513,0.0010000000474974513,0.0014142136295446348,False,uv3z_08-31-2024.nc4,bottom
Omolon,Russia,90.0,176.64239851131987,176.64239851131987,90.0,176.64239851131987,2024-08-31,0.0010000000474974513,0.0010000000474974513,0.0014142136295446348,False,uv3z_08-31-2024.nc4,bottom
Sapt,China,28.87553038129976,97.69209355851692,97.69209355851692,28.87553038129976,97.69209355851692,2024-08-31,,,,False,uv3z_08-31-2024.nc4,bottom
Min,China,29.983293437203685,132.57455606661424,132.57455606661424,29.983293437203685,132.57455606661424,2024-08-31,-0.0430000014603138,0.010000000707805157,0.04414748169197301,False,uv3z_08-31-2024.nc4,bottom
Lúrio,Mozambique,-15.081489113508137,45.11439785277868,45.11439785277868,-15.081489113508137,45.11439785277868,2024-08-31,0.0020000000949949026,0.0010000000474974513,0.0022360680837073196,False,uv3z_08-31-2024.nc4,bottom
Beni,Bolivia,-12.203866435743157,-73.6063171320844,286.3936828679156,-12.203866435743157,286.3936828679156,2024-08-31,,,,False,uv3z_08-31-2024.nc4,bottom
Ituri,Democratic Republic of the Congo,1.889191478246852,29.875150920764362,29.875150920764362,1.889191478246852,29.875150920764362,2024-08-31,,,,False,uv3z_08-31-2024.nc4,bottom
Betsiboka,Madagascar,-17.87549783929326,51.73475495221184,51.73475495221184,-17.87549783929326,51.73475495221184,2024-08-31,0.015000000596046448,0.09100000560283661,0.092227984026529,False,uv3z_08-31-2024.nc4,bottom
Courantyne,Guyana,3.8582810820301465,-64.1784042033279,295.8215957966721,3.8582810820301465,295.8215957966721,2024-08-31,,,,False,uv3z_08-31-2024.nc4,bottom
Mazoe,Zimbabwe,-18.39691047749157,37.62794467605057,37.62794467605057,-18.39691047749157,37.62794467605057,2024-08-31,0.0,-0.018000001087784767,0.018000001087784767,False,uv3z_08-31-2024.nc4,bottom
Sreng,Cambodia,14.7564366888082,115.42428830583532,115.42428830583532,14.7564366888082,115.42428830583532,2024-08-31,-0.02500000037252903,0.032999999821186066,0.04140048317139224,False,uv3z_08-31-2024.nc4,bottom
Tumbes,Ecuador,-5.413552176896085,-90.38109903231648,269.61890096768354,-5.413552176896085,269.61890096768354,2024-08-31,-0.013000000268220901,-0.0010000000474974513,0.013038405081479038,False,uv3z_08-31-2024.nc4,bottom
Manas,Bhutan,30.04148172721618,100.90965081315942,100.90965081315942,30.04148172721618,100.90965081315942,2024-08-31,,,,False,uv3z_08-31-2024.nc4,bottom
Ou,Laos,22.641538800869686,113.79547977990212,113.79547977990212,22.641538800869686,113.79547977990212,2024-08-31,-0.004000000189989805,0.032999999821186066,0.033241540122536425,False,uv3z_08-31-2024.nc4,bottom
Fly,Papua New Guinea,-7.638298446458054,156.97667987410972,156.97667987410972,-7.638298446458054,156.97667987410972,2024-08-31,0.021000001579523087,-0.009000000543892384,0.022847320983652226,False,uv3z_08-31-2024.nc4,bottom
Kotto,Central African Republic,4.682874808789197,24.532413270108464,24.532413270108464,4.682874808789197,24.532413270108464,2024-08-31,,,,False,uv3z_08-31-2024.nc4,bottom
Gamka,South Africa,-39.01489795966132,24.145404102897473,24.145404102897473,-39.01489795966132,24.145404102897473,2024-08-31,0.036000002175569534,-0.10200000554323196,0.10816654421520715,False,uv3z_08-31-2024.nc4,bottom
Atrek,Iran,44.699358816356344,60.00680412524619,60.00680412524619,44.699358816356344,60.00680412524619,2024-08-31,,,,False,uv3z_08-31-2024.nc4,bottom
Buh,China,44.134263576878396,111.14000985645748,111.14000985645748,44.134263576878396,111.14000985645748,2024-08-31,,,,False,uv3z_08-31-2024.nc4,bottom
Kotuy,Russia,90.0,114.63048467129188,114.63048467129188,90.0,114.63048467129188,2024-08-31,0.0010000000474974513,0.0020000000949949026,0.0022360680837073196,False,uv3z_08-31-2024.nc4,bottom
Esil,Kazakhstan,70.11389059240636,74.59846296482347,74.59846296482347,70.11389059240636,74.59846296482347,2024-08-31,,,,False,uv3z_08-31-2024.nc4,bottom
Pur,Russia,90.0,86.70462065425234,86.70462065425234,90.0,86.70462065425234,2024-08-31,0.0,0.0010000000474974513,0.0010000000474974513,False,uv3z_08-31-2024.nc4,bottom
Katun,Russia,67.11715385508815,95.48516291145226,95.48516291145226,67.11715385508815,95.48516291145226,2024-08-31,,,,False,uv3z_08-31-2024.nc4,bottom
Baoulé,Mali,14.13117074307863,-7.255334780803787,352.74466521919624,14.13117074307863,352.74466521919624,2024-08-31,,,,False,uv3z_08-31-2024.nc4,bottom
Vina,Cameroon,8.617846303935396,17.25017265534829,17.25017265534829,8.617846303935396,17.25017265534829,2024-08-31,,,,False,uv3z_08-31-2024.nc4,bottom
Lomami,Democratic Republic of the Congo,0.8588875856831752,27.033296947549143,27.033296947549143,0.8588875856831752,27.033296947549143,2024-08-31,,,,False,uv3z_08-31-2024.nc4,bottom
Gêba,Guinea,13.107661844511531,-16.614868842656968,343.38513115734304,13.107661844511531,343.38513115734304,2024-08-31,,,,False,uv3z_08-31-2024.nc4,bottom
Mania,Madagascar,-22.257723830709963,50.53828784706463,50.53828784706463,-22.257723830709963,50.53828784706463,2024-08-31,-0.032999999821186066,0.04700000211596489,0.057428217690426234,False,uv3z_08-31-2024.nc4,bottom
Kabompo,Zambia,-15.815580268167059,25.806499629578347,25.806499629578347,-15.815580268167059,25.806499629578347,2024-08-31,,,,False,uv3z_08-31-2024.nc4,bottom
Save,Zimbabwe,-23.709626177403326,39.08031615749406,39.08031615749406,-23.709626177403326,39.08031615749406,2024-08-31,0.006000000052154064,0.006000000052154064,0.008485281447995555,False,uv3z_08-31-2024.nc4,bottom
Sokoto,Nigeria,12.67535021238961,4.58893945811627,4.58893945811627,12.67535021238961,4.58893945811627,2024-08-31,,,,False,uv3z_08-31-2024.nc4,bottom
Mariga,Nigeria,11.666130952681199,6.774454148456112,6.774454148456112,11.666130952681199,6.774454148456112,2024-08-31,,,,False,uv3z_08-31-2024.nc4,bottom
Jamanxim,Brazil,-8.138926852774002,-64.71695572421646,295.28304427578354,-8.138926852774002,295.28304427578354,2024-08-31,,,,False,uv3z_08-31-2024.nc4,bottom
Atrato,Colombia,9.0277212248594,-85.53690746054534,274.4630925394547,9.0277212248594,274.4630925394547,2024-08-31,-0.009000000543892384,0.0,0.009000000543892384,False,uv3z_08-31-2024.nc4,bottom
Iriri,Brazil,-4.266075343546975,-58.56372738644216,301.43627261355783,-4.266075343546975,301.43627261355783,2024-08-31,,,,False,uv3z_08-31-2024.nc4,bottom
Cuyuni,Venezuela,7.088093600229424,-65.31986382571986,294.68013617428016,7.088093600229424,294.68013617428016,2024-08-31,,,,False,uv3z_08-31-2024.nc4,bottom
Gurupi,Brazil,-1.3384717656534117,-51.30110900614313,308.6988909938569,-1.3384717656534117,308.6988909938569,2024-08-31,,,,False,uv3z_08-31-2024.nc4,bottom
Amapari,Brazil,1.3823101695575166,-55.56571086583974,304.4342891341603,1.3823101695575166,304.4342891341603,2024-08-31,,,,False,uv3z_08-31-2024.nc4,bottom
Doce,Brazil,-22.1562688243892,-44.31293013219917,315.6870698678008,-22.1562688243892,315.6870698678008,2024-08-31,,,,False,uv3z_08-31-2024.nc4,bottom
Litani,France,4.021708714536108,-60.169108812506295,299.8308911874937,4.021708714536108,299.8308911874937,2024-08-31,,,,False,uv3z_08-31-2024.nc4,bottom
Putumayo,Colombia,-3.422773112047754,-75.62126514170677,284.3787348582932,-3.422773112047754,284.3787348582932,2024-08-31,,,,False,uv3z_08-31-2024.nc4,bottom
Huallaga,Peru,-8.309364577865669,-85.40433507868752,274.5956649213125,-8.309364577865669,274.5956649213125,2024-08-31,0.026000000536441803,-0.018000001087784767,0.03162277766192,False,uv3z_08-31-2024.nc4,bottom
Essequibo,Guyana,7.11020801633287,-65.23561323454332,294.76438676545666,7.11020801633287,294.76438676545666,2024-08-31,,,,False,uv3z_08-31-2024.nc4,bottom
Salado,Argentina,-42.41835165545143,-63.85053351560085,296.14946648439917,-42.41835165545143,296.14946648439917,2024-08-31,,,,False,uv3z_08-31-2024.nc4,bottom
Guainía,Colombia,4.522497475902323,-75.39930560037166,284.6006943996283,4.522497475902323,284.6006943996283,2024-08-31,,,,False,uv3z_08-31-2024.nc4,bottom
Velhas,Brazil,-19.304192202920486,-49.9123331322329,310.0876668677671,-19.304192202920486,310.0876668677671,2024-08-31,,,,False,uv3z_08-31-2024.nc4,bottom
Bhima,India,18.407991040050703,86.0328988440847,86.0328988440847,18.407991040050703,86.0328988440847,2024-08-31,-0.039000000804662704,0.01100000087171793,0.04052160018979367,False,uv3z_08-31-2024.nc4,bottom
Tista,India,29.10634415853741,99.85026757313945,99.85026757313945,29.10634415853741,99.85026757313945,2024-08-31,,,,False,uv3z_08-31-2024.nc4,bottom
Kong,Laos,15.150503573000147,118.03409984438429,118.03409984438429,15.150503573000147,118.03409984438429,2024-08-31,-0.0020000000949949026,0.01900000125169754,0.01910497442930735,False,uv3z_08-31-2024.nc4,bottom
Jialing,China,34.293056514995335,118.6519012761989,118.6519012761989,34.293056514995335,118.6519012761989,2024-08-31,,,,False,uv3z_08-31-2024.nc4,bottom
Dong,China,26.286420153987283,126.73055457606795,126.73055457606795,26.286420153987283,126.73055457606795,2024-08-31,0.0,0.0,0.0,False,uv3z_08-31-2024.nc4,bottom
Yalong,China,30.55089616591312,113.31921934126409,113.31921934126409,30.55089616591312,113.31921934126409,2024-08-31,,,,False,uv3z_08-31-2024.nc4,bottom
Bajang,Malaysia,2.5345192639210308,124.31973749835605,124.31973749835605,2.5345192639210308,124.31973749835605,2024-08-31,0.004000000189989805,0.006000000052154064,0.007211102699710166,False,uv3z_08-31-2024.nc4,bottom
Nadym,Russia,90.0,81.84510091040903,81.84510091040903,90.0,81.84510091040903,2024-08-31,0.0,0.0010000000474974513,0.0010000000474974513,False,uv3z_08-31-2024.nc4,bottom
Mahakam,Indonesia,-0.5725115340565541,130.73517541795977,130.73517541795977,-0.5725115340565541,130.73517541795977,2024-08-31,-0.004000000189989805,0.004000000189989805,0.005656854518178539,False,uv3z_08-31-2024.nc4,bottom
Baliem,Indonesia,-6.28967048885414,154.02486529060408,154.02486529060408,-6.28967048885414,154.02486529060408,2024-08-31,-0.0690000057220459,0.026000000536441803,0.07373602116698012,False,uv3z_08-31-2024.nc4,bottom
Sittong,Myanmar,19.613220393267476,107.84972531730256,107.84972531730256,19.613220393267476,107.84972531730256,2024-08-31,0.015000000596046448,0.03400000184774399,0.03716181028324627,False,uv3z_08-31-2024.nc4,bottom
Pahang,Malaysia,3.878025157238687,115.15778466161683,115.15778466161683,3.878025157238687,115.15778466161683,2024-08-31,,,,False,uv3z_08-31-2024.nc4,bottom
You,China,25.966247169387625,120.32778142275073,120.32778142275073,25.966247169387625,120.32778142275073,2024-08-31,0.0,0.07600000500679016,0.07600000500679016,False,uv3z_08-31-2024.nc4,bottom
Mahi,India,25.288190053840744,81.16006207131353,81.16006207131353,25.288190053840744,81.16006207131353,2024-08-31,,,,False,uv3z_08-31-2024.nc4,bottom
Tapi,India,23.94133684179333,80.96112196569662,80.96112196569662,23.94133684179333,80.96112196569662,2024-08-31,,,,False,uv3z_08-31-2024.nc4,bottom
Sankh,India,25.27212999096557,94.25206038794829,94.25206038794829,25.27212999096557,94.25206038794829,2024-08-31,,,,False,uv3z_08-31-2024.nc4,bottom
Bei,China,26.33719937339493,125.5899102819777,125.5899102819777,26.33719937339493,125.5899102819777,2024-08-31,-0.007000000216066837,0.0020000000949949026,0.007280110123131064,False,uv3z_08-31-2024.nc4,bottom
Ussuri,Russia,56.81706297408493,148.51667034992144,148.51667034992144,56.81706297408493,148.51667034992144,2024-08-31,0.005000000353902578,-0.0020000000949949026,0.00538516517100502,False,uv3z_08-31-2024.nc4,bottom
Namhan,South Korea,44.942384496142246,141.57958538288455,141.57958538288455,44.942384496142246,141.57958538288455,2024-08-31,-0.004000000189989805,0.021000001579523087,0.021377559913607787,False,uv3z_08-31-2024.nc4,bottom
Bol’shaya Kuonamka,Russia,90.0,125.28780396858465,125.28780396858465,90.0,125.28780396858465,2024-08-31,0.0010000000474974513,0.0020000000949949026,0.0022360680837073196,False,uv3z_08-31-2024.nc4,bottom
Caledon,South Africa,-35.480806865402364,29.009489685230324,29.009489685230324,-35.480806865402364,29.009489685230324,2024-08-31,-0.08300000429153442,-0.07300000637769699,0.1105350697450295,False,uv3z_08-31-2024.nc4,bottom
Shebele,Ethiopia,5.496077188582371,50.10301124439247,50.10301124439247,5.496077188582371,50.10301124439247,2024-08-31,-0.020000001415610313,-0.012000000104308128,0.02332380884692313,False,uv3z_08-31-2024.nc4,bottom
Tugela,South Africa,-33.82456983343405,35.04509332667813,35.04509332667813,-33.82456983343405,35.04509332667813,2024-08-31,0.018000001087784767,-0.013000000268220901,0.02220360435005984,False,uv3z_08-31-2024.nc4,bottom
Penner,India,16.283803549929324,89.22159347684673,89.22159347684673,16.283803549929324,89.22159347684673,2024-08-31,-0.015000000596046448,0.005000000353902578,0.01581138897821503,False,uv3z_08-31-2024.nc4,bottom
Deseado,Argentina,-60.52734328142117,-73.89869386107708,286.10130613892295,-60.52734328142117,286.10130613892295,2024-08-31,-0.005000000353902578,0.03700000047683716,0.03733630992512484,False,uv3z_08-31-2024.nc4,bottom
Ivindo,Gabon,-0.1380353904163552,13.531351560815407,13.531351560815407,-0.1380353904163552,13.531351560815407,2024-08-31,,,,False,uv3z_08-31-2024.nc4,bottom
Rufiji,United Republic of Tanzania,-8.677892957106158,43.69572660780581,43.69572660780581,-8.677892957106158,43.69572660780581,2024-08-31,0.020000001415610313,0.11900000274181366,0.12066897160901005,False,uv3z_08-31-2024.nc4,bottom
Shilka,Russia,70.08846677515041,135.22844968867554,135.22844968867554,70.08846677515041,135.22844968867554,2024-08-31,,,,False,uv3z_08-31-2024.nc4,bottom
Suriname,Suriname,5.511252605189578,-61.2280843883754,298.7719156116246,5.511252605189578,298.7719156116246,2024-08-31,,,,False,uv3z_08-31-2024.nc4,bottom
Corantijn,Guyana,6.074331272402919,-63.727799428583644,296.27220057141636,6.074331272402919,296.27220057141636,2024-08-31,,,,False,uv3z_08-31-2024.nc4,bottom
Gourits,South Africa,-40.50951924293677,24.354671700336002,24.354671700336002,-40.50951924293677,24.354671700336002,2024-08-31,-0.07300000637769699,-0.029000001028180122,0.07854935385334656,False,uv3z_08-31-2024.nc4,bottom
Pyasina,Russia,90.0,96.60580448454056,96.60580448454056,90.0,96.60580448454056,2024-08-31,0.0,0.0010000000474974513,0.0010000000474974513,False,uv3z_08-31-2024.nc4,bottom
Logone,Chad,8.617846303935396,17.25017265534829,17.25017265534829,8.617846303935396,17.25017265534829,2024-08-31,,,,False,uv3z_08-31-2024.nc4,bottom
Mbini,Equatorial Guinea,1.7694690839392127,10.847562567691442,10.847562567691442,1.7694690839392127,10.847562567691442,2024-08-31,,,,False,uv3z_08-31-2024.nc4,bottom
Maroni,Suriname,5.9219802614618935,-60.302822653986496,299.6971773460135,5.9219802614618935,299.6971773460135,2024-08-31,,,,False,uv3z_08-31-2024.nc4,bottom
Yong,China,25.83288275697542,121.22431642330946,121.22431642330946,25.83288275697542,121.22431642330946,2024-08-31,0.024000000208616257,0.13900001347064972,0.14105673948753525,False,uv3z_08-31-2024.nc4,bottom
Brahmani,India,23.4081113337257,96.78131749028836,96.78131749028836,23.4081113337257,96.78131749028836,2024-08-31,,,,False,uv3z_08-31-2024.nc4,bottom
Sepik,Papua New Guinea,-4.317757022635667,160.76328192812468,160.76328192812468,-4.317757022635667,160.76328192812468,2024-08-31,0.04000000283122063,0.03700000047683716,0.054488533305491055,False,uv3z_08-31-2024.nc4,bottom
Aruwimi,Democratic Republic of the Congo,1.889191478246852,29.875150920764362,29.875150920764362,1.889191478246852,29.875150920764362,2024-08-31,,,,False,uv3z_08-31-2024.nc4,bottom
Linyanti,Botswana,-20.187886975141208,27.160759938716247,27.160759938716247,-20.187886975141208,27.160759938716247,2024-08-31,,,,False,uv3z_08-31-2024.nc4,bottom
Sobat,South Sudan,9.364819676347947,36.966713423364936,36.966713423364936,9.364819676347947,36.966713423364936,2024-08-31,,,,False,uv3z_08-31-2024.nc4,bottom
Srepok,Cambodia,15.116612525103912,117.96561226704078,117.96561226704078,15.116612525103912,117.96561226704078,2024-08-31,-0.003000000026077032,0.017000000923871994,0.017262677415977826,False,uv3z_08-31-2024.nc4,bottom
Yongding,China,48.7333350916897,128.67321014293884,128.67321014293884,48.7333350916897,128.67321014293884,2024-08-31,,,,False,uv3z_08-31-2024.nc4,bottom
Song’acha,China,56.00619693904209,147.87620279131937,147.87620279131937,56.00619693904209,147.87620279131937,2024-08-31,-0.004000000189989805,0.00800000037997961,0.008944272334829279,False,uv3z_08-31-2024.nc4,bottom
Ussuri,Russia,61.557050173820436,150.32958000638047,150.32958000638047,61.557050173820436,150.32958000638047,2024-08-31,,,,False,uv3z_08-31-2024.nc4,bottom
Ishim,Russia,78.67577094925157,79.29692819146926,79.29692819146926,78.67577094925157,79.29692819146926,2024-08-31,0.029000001028180122,-0.0020000000949949026,0.029068884739776785,False,uv3z_08-31-2024.nc4,bottom
Bani,Mali,14.737712284274846,-6.17121991563199,353.828780084368,14.737712284274846,353.828780084368,2024-08-31,,,,False,uv3z_08-31-2024.nc4,bottom
Tsiribihina,Madagascar,-22.165734854377423,49.438899165040816,49.438899165040816,-22.165734854377423,49.438899165040816,2024-08-31,-0.00800000037997961,0.02500000037252903,0.02624880996742758,False,uv3z_08-31-2024.nc4,bottom
Igan,Malaysia,2.5345192639210308,124.4718234042347,124.4718234042347,2.5345192639210308,124.4718234042347,2024-08-31,0.0010000000474974513,0.0010000000474974513,0.0014142136295446348,False,uv3z_08-31-2024.nc4,bottom
Yu,China,25.83288275697542,121.22431642330946,121.22431642330946,25.83288275697542,121.22431642330946,2024-08-31,0.024000000208616257,0.13900001347064972,0.14105673948753525,False,uv3z_08-31-2024.nc4,bottom
Podkamennaya Tunguska,Russia,87.24714651085384,100.32114684498619,100.32114684498619,87.24714651085384,100.32114684498619,2024-08-31,0.0020000000949949026,0.0010000000474974513,0.0022360680837073196,False,uv3z_08-31-2024.nc4,bottom
Han,South Korea,44.942384496142246,141.57958538288455,141.57958538288455,44.942384496142246,141.57958538288455,2024-08-31,-0.004000000189989805,0.021000001579523087,0.021377559913607787,False,uv3z_08-31-2024.nc4,bottom
Anabar,Russia,90.0,127.00477666154258,127.00477666154258,90.0,127.00477666154258,2024-08-31,0.0010000000474974513,0.0020000000949949026,0.0022360680837073196,False,uv3z_08-31-2024.nc4,bottom
Shabeelle,Somalia,5.496077188582371,50.10301124439247,50.10301124439247,5.496077188582371,50.10301124439247,2024-08-31,-0.020000001415610313,-0.012000000104308128,0.02332380884692313,False,uv3z_08-31-2024.nc4,bottom
Chobe,Botswana,-20.187886975141208,27.160759938716247,27.160759938716247,-20.187886975141208,27.160759938716247,2024-08-31,,,,False,uv3z_08-31-2024.nc4,bottom
Hai,China,47.42029459898636,130.28120061956844,130.28120061956844,47.42029459898636,130.28120061956844,2024-08-31,,,,False,uv3z_08-31-2024.nc4,bottom
Yana,Russia,90.0,151.36678631659396,151.36678631659396,90.0,151.36678631659396,2024-08-31,0.0010000000474974513,0.0010000000474974513,0.0014142136295446348,False,uv3z_08-31-2024.nc4,bottom
Malaya Ob,Russia,90.0,73.14081902702897,73.14081902702897,90.0,73.14081902702897,2024-08-31,0.0,0.0,0.0,False,uv3z_08-31-2024.nc4,bottom
Chao Phraya,Thailand,17.053258363977672,111.41216644356778,111.41216644356778,17.053258363977672,111.41216644356778,2024-08-31,0.017000000923871994,-0.005000000353902578,0.01772004613285966,False,uv3z_08-31-2024.nc4,bottom
Suez Canal,Egypt,35.36567704622263,36.02240018432611,36.02240018432611,35.36567704622263,36.02240018432611,2024-08-31,,,,False,uv3z_08-31-2024.nc4,bottom
Suez Canal,Egypt,35.05425027401764,36.24650675685572,36.24650675685572,35.05425027401764,36.24650675685572,2024-08-31,,,,False,uv3z_08-31-2024.nc4,bottom
Ismailiya Canal,Egypt,34.97631951012209,34.77348029176895,34.77348029176895,34.97631951012209,34.77348029176895,2024-08-31,-0.01900000125169754,-0.0010000000474974513,0.01902629884290434,False,uv3z_08-31-2024.nc4,bottom
Ishikari,Japan,53.1897461296965,157.35857965062996,157.35857965062996,53.1897461296965,157.35857965062996,2024-08-31,,,,False,uv3z_08-31-2024.nc4,bottom
Kayan,Indonesia,3.2325530871170667,130.84921266975874,130.84921266975874,3.2325530871170667,130.84921266975874,2024-08-31,-0.0010000000474974513,0.017000000923871994,0.01702938729099328,False,uv3z_08-31-2024.nc4,bottom
Barito,Indonesia,-3.704248905768442,127.51680283501557,127.51680283501557,-3.704248905768442,127.51680283501557,2024-08-31,0.04700000211596489,-0.01900000125169754,0.05069516985340134,False,uv3z_08-31-2024.nc4,bottom
Purari,Papua New Guinea,-8.675058687937385,161.60513557724875,161.60513557724875,-8.675058687937385,161.60513557724875,2024-08-31,0.0,0.0,0.0,False,uv3z_08-31-2024.nc4,bottom
Indragi,Indonesia,-0.39811424673180323,115.043801765038,115.043801765038,-0.39811424673180323,115.043801765038,2024-08-31,,,,False,uv3z_08-31-2024.nc4,bottom
Okavango,Botswana,-20.313603540645307,23.93749538596179,23.93749538596179,-20.313603540645307,23.93749538596179,2024-08-31,,,,False,uv3z_08-31-2024.nc4,bottom
Cubango,Angola,-20.313603540645307,23.93749538596179,23.93749538596179,-20.313603540645307,23.93749538596179,2024-08-31,,,,False,uv3z_08-31-2024.nc4,bottom
Orange,South Africa,-35.52143167794106,28.911650289025296,28.911650289025296,-35.52143167794106,28.911650289025296,2024-08-31,-0.07500000298023224,-0.0690000057220459,0.10191173257617207,False,uv3z_08-31-2024.nc4,bottom
Orange,South Africa,-34.79526686120764,27.530266725050584,27.530266725050584,-34.79526686120764,27.530266725050584,2024-08-31,0.020000001415610313,-0.04400000348687172,0.04833218765449313,False,uv3z_08-31-2024.nc4,bottom
Semliki,Uganda,2.428722000792983,34.89105063287535,34.89105063287535,2.428722000792983,34.89105063287535,2024-08-31,,,,False,uv3z_08-31-2024.nc4,bottom
Semliki,Democratic Republic of the Congo,-0.14840175562846117,32.94741667204237,32.94741667204237,-0.14840175562846117,32.94741667204237,2024-08-31,,,,False,uv3z_08-31-2024.nc4,bottom
Koukourou,Central African Republic,8.359241959772815,21.966575104631662,21.966575104631662,8.359241959772815,21.966575104631662,2024-08-31,,,,False,uv3z_08-31-2024.nc4,bottom
Chari,Chad,13.432488090877802,16.74412555608786,16.74412555608786,13.432488090877802,16.74412555608786,2024-08-31,,,,False,uv3z_08-31-2024.nc4,bottom
Bamingui,Central African Republic,9.809882850334265,21.023783811756015,21.023783811756015,9.809882850334265,21.023783811756015,2024-08-31,,,,False,uv3z_08-31-2024.nc4,bottom
Jordan,Jordan,36.52867225826801,39.43253798383215,39.43253798383215,36.52867225826801,39.43253798383215,2024-08-31,,,,False,uv3z_08-31-2024.nc4,bottom
Jordan,Israel,36.52794408767777,39.43319024647353,39.43319024647353,36.52794408767777,39.43319024647353,2024-08-31,,,,False,uv3z_08-31-2024.nc4,bottom
Genale,Ethiopia,6.630348499440198,43.832701762492846,43.832701762492846,6.630348499440198,43.832701762492846,2024-08-31,,,,False,uv3z_08-31-2024.nc4,bottom
Yarkant,China,49.06317837628041,90.04404231239019,90.04404231239019,49.06317837628041,90.04404231239019,2024-08-31,,,,False,uv3z_08-31-2024.nc4,bottom
Taz,Russia,90.0,87.47195329660028,87.47195329660028,90.0,87.47195329660028,2024-08-31,0.0,0.0010000000474974513,0.0010000000474974513,False,uv3z_08-31-2024.nc4,bottom
Liao,China,49.40557220337289,135.98371547215822,135.98371547215822,49.40557220337289,135.98371547215822,2024-08-31,,,,False,uv3z_08-31-2024.nc4,bottom
Yuan,China,33.589072826113195,125.68503191717704,125.68503191717704,33.589072826113195,125.68503191717704,2024-08-31,0.10600000619888306,-0.009000000543892384,0.10638139557250276,False,uv3z_08-31-2024.nc4,bottom
Yuan,China,33.53020740854532,124.66994818154988,124.66994818154988,33.53020740854532,124.66994818154988,2024-08-31,0.032999999821186066,0.026000000536441803,0.04201190326673209,False,uv3z_08-31-2024.nc4,bottom
Sutlej,India,36.63668005826958,85.45401574987164,85.45401574987164,36.63668005826958,85.45401574987164,2024-08-31,,,,False,uv3z_08-31-2024.nc4,bottom
Sutlej,India,34.01429407939554,79.0612983122755,79.0612983122755,34.01429407939554,79.0612983122755,2024-08-31,,,,False,uv3z_08-31-2024.nc4,bottom
Atbara,Sudan,16.70769196901272,39.965436561828874,39.965436561828874,16.70769196901272,39.965436561828874,2024-08-31,-0.006000000052154064,-0.08300000429153442,0.08321658916959154,False,uv3z_08-31-2024.nc4,bottom
Atbara,Sudan,17.92953839917085,39.61125794756669,39.61125794756669,17.92953839917085,39.61125794756669,2024-08-31,-0.005000000353902578,0.01600000075995922,0.01676305544516636,False,uv3z_08-31-2024.nc4,bottom
Biya,Russia,66.52604082031735,97.68926708707102,97.68926708707102,66.52604082031735,97.68926708707102,2024-08-31,,,,False,uv3z_08-31-2024.nc4,bottom
Biya,Russia,67.23549457535607,97.28432069722244,97.28432069722244,67.23549457535607,97.28432069722244,2024-08-31,,,,False,uv3z_08-31-2024.nc4,bottom
Nakanbé,Ghana,9.61423346424947,-1.0844953517125695,358.9155046482874,9.61423346424947,358.9155046482874,2024-08-31,,,,False,uv3z_08-31-2024.nc4,bottom
Nakanbé,Burkina Faso,10.12396054997066,-1.2820765768266071,358.7179234231734,10.12396054997066,358.7179234231734,2024-08-31,,,,False,uv3z_08-31-2024.nc4,bottom
Vilyuy,Russia,90.0,121.99148599999711,121.99148599999711,90.0,121.99148599999711,2024-08-31,0.0010000000474974513,0.0020000000949949026,0.0022360680837073196,False,uv3z_08-31-2024.nc4,bottom
Vilyuy,Russia,90.0,140.7409930469673,140.7409930469673,90.0,140.7409930469673,2024-08-31,0.0010000000474974513,0.0010000000474974513,0.0014142136295446348,False,uv3z_08-31-2024.nc4,bottom
Han,China,38.15079403674461,124.0963375436879,124.0963375436879,38.15079403674461,124.0963375436879,2024-08-31,-0.005000000353902578,0.013000000268220901,0.013928388654570543,False,uv3z_08-31-2024.nc4,bottom
Han,China,38.62783373427263,122.16118299719268,122.16118299719268,38.62783373427263,122.16118299719268,2024-08-31,0.00800000037997961,0.020000001415610313,0.02154066068402008,False,uv3z_08-31-2024.nc4,bottom
Mahäna Nadï,India,24.591729905558957,92.72880969947623,92.72880969947623,24.591729905558957,92.72880969947623,2024-08-31,,,,False,uv3z_08-31-2024.nc4,bottom
Mahäna Nadï,India,22.75287284184824,95.91141654758545,95.91141654758545,22.75287284184824,95.91141654758545,2024-08-31,,,,False,uv3z_08-31-2024.nc4,bottom
Sassandra,Ivory Coast,7.805968157658337,-7.840794856650624,352.15920514334937,7.805968157658337,352.15920514334937,2024-08-31,,,,False,uv3z_08-31-2024.nc4,bottom
Sassandra,Ivory Coast,5.488489599848529,-6.750918338146766,353.2490816618532,5.488489599848529,353.2490816618532,2024-08-31,,,,False,uv3z_08-31-2024.nc4,bottom
Gan,China,33.90333096392244,129.1104978887552,129.1104978887552,33.90333096392244,129.1104978887552,2024-08-31,0.14600001275539398,0.16500000655651093,0.22032023485877064,False,uv3z_08-31-2024.nc4,bottom
Gan,China,33.90333096392244,129.1104978887552,129.1104978887552,33.90333096392244,129.1104978887552,2024-08-31,0.14600001275539398,0.16500000655651093,0.22032023485877064,False,uv3z_08-31-2024.nc4,bottom
Krishna,India,18.19471301374745,87.93924512391956,87.93924512391956,18.19471301374745,87.93924512391956,2024-08-31,0.01600000075995922,0.0010000000474974513,0.016031220303323466,False,uv3z_08-31-2024.nc4,bottom
Krishna,India,18.59729302255784,88.29124952937718,88.29124952937718,18.59729302255784,88.29124952937718,2024-08-31,-0.024000000208616257,-0.03800000250339508,0.04494441233648086,False,uv3z_08-31-2024.nc4,bottom
Kwango,Democratic Republic of the Congo,-3.726964802121642,19.33023821866716,19.33023821866716,-3.726964802121642,19.33023821866716,2024-08-31,,,,False,uv3z_08-31-2024.nc4,bottom
Kafue,Zambia,-17.879711558635165,32.22275287748384,32.22275287748384,-17.879711558635165,32.22275287748384,2024-08-31,,,,False,uv3z_08-31-2024.nc4,bottom
Jequitinhonha,Brazil,-17.753333800606356,-43.26131968865548,316.7386803113445,-17.753333800606356,316.7386803113445,2024-08-31,,,,False,uv3z_08-31-2024.nc4,bottom
Chubut,Argentina,-53.96502552950805,-73.98009080319764,286.01990919680236,-53.96502552950805,286.01990919680236,2024-08-31,-0.021000001579523087,0.04200000315904617,0.04695743105941658,False,uv3z_08-31-2024.nc4,bottom
Mendoza,Argentina,-36.467061566021826,-77.28888329480132,282.71111670519866,-36.467061566021826,282.71111670519866,2024-08-31,0.003000000026077032,0.003000000026077032,0.004242640723997777,False,uv3z_08-31-2024.nc4,bottom
Salado,Argentina,-37.352407908220876,-67.59517333968785,292.40482666031215,-37.352407908220876,292.40482666031215,2024-08-31,,,,False,uv3z_08-31-2024.nc4,bottom
Branco,Brazil,-1.5218197785069252,-68.90113903575454,291.09886096424543,-1.5218197785069252,291.09886096424543,2024-08-31,,,,False,uv3z_08-31-2024.nc4,bottom
Purús,Brazil,-4.060459072889008,-68.44300606302451,291.55699393697546,-4.060459072889008,291.55699393697546,2024-08-31,,,,False,uv3z_08-31-2024.nc4,bottom
Meta,Colombia,6.867105530290941,-75.08575751314461,284.9142424868554,6.867105530290941,284.9142424868554,2024-08-31,,,,False,uv3z_08-31-2024.nc4,bottom
Madre de Dios,Bolivia,-11.555550123064066,-72.79789194333033,287.20210805666966,-11.555550123064066,287.20210805666966,2024-08-31,,,,False,uv3z_08-31-2024.nc4,bottom
Paraiba,Brazil,-24.491853083845513,-45.661102656684314,314.3388973433157,-24.491853083845513,314.3388973433157,2024-08-31,-0.12400000542402267,-0.11500000208616257,0.16911830718457138,False,uv3z_08-31-2024.nc4,bottom
Uruguay,Brazil,-37.98900243156679,-64.78843283866624,295.21156716133373,-37.98900243156679,295.21156716133373,2024-08-31,,,,False,uv3z_08-31-2024.nc4,bottom
Pilcomayo,Bolivia,-28.931554857675746,-64.20041806747403,295.79958193252594,-28.931554857675746,295.79958193252594,2024-08-31,,,,False,uv3z_08-31-2024.nc4,bottom
Lom,Cameroon,5.461987859921861,14.611770271019433,14.611770271019433,5.461987859921861,14.611770271019433,2024-08-31,,,,False,uv3z_08-31-2024.nc4,bottom
Tshuapa,Democratic Republic of the Congo,-0.31134876918930765,23.102870981112808,23.102870981112808,-0.31134876918930765,23.102870981112808,2024-08-31,,,,False,uv3z_08-31-2024.nc4,bottom
Omo,Ethiopia,5.024303449647653,40.12502348808328,40.12502348808328,5.024303449647653,40.12502348808328,2024-08-31,,,,False,uv3z_08-31-2024.nc4,bottom
Mananantanana,Madagascar,-24.274308167689334,50.82039143945578,50.82039143945578,-24.274308167689334,50.82039143945578,2024-08-31,-0.024000000208616257,0.03400000184774399,0.04161730572322258,False,uv3z_08-31-2024.nc4,bottom
Ouham,Central African Republic,10.347246599223253,20.29895695153712,20.29895695153712,10.347246599223253,20.29895695153712,2024-08-31,,,,False,uv3z_08-31-2024.nc4,bottom
Kadéï,Central African Republic,1.8298830989913946,17.888302939485513,17.888302939485513,1.8298830989913946,17.888302939485513,2024-08-31,,,,False,uv3z_08-31-2024.nc4,bottom
Ruvuma,Mozambique,-11.648349924753546,45.014166826888655,45.014166826888655,-11.648349924753546,45.014166826888655,2024-08-31,0.03500000014901161,0.01900000125169754,0.039824616231613846,False,uv3z_08-31-2024.nc4,bottom
Helmand,Afghanistan,36.37190008711512,68.5773721671461,68.5773721671461,36.37190008711512,68.5773721671461,2024-08-31,,,,False,uv3z_08-31-2024.nc4,bottom
Hong,China,22.9372849323512,118.55634479923864,118.55634479923864,22.9372849323512,118.55634479923864,2024-08-31,0.1340000033378601,0.07500000298023224,0.15356106714132123,False,uv3z_08-31-2024.nc4,bottom
Yamuna,India,29.084257867430384,91.17408733855825,91.17408733855825,29.084257867430384,91.17408733855825,2024-08-31,,,,False,uv3z_08-31-2024.nc4,bottom
Narmada,India,24.661595252863023,81.40987866295704,81.40987866295704,24.661595252863023,81.40987866295704,2024-08-31,,,,False,uv3z_08-31-2024.nc4,bottom
Dadu,China,34.2590754688726,115.45635788570252,115.45635788570252,34.2590754688726,115.45635788570252,2024-08-31,,,,False,uv3z_08-31-2024.nc4,bottom
Xar Moron,China,53.472691723668795,134.42774294117766,134.42774294117766,53.472691723668795,134.42774294117766,2024-08-31,,,,False,uv3z_08-31-2024.nc4,bottom
Kapuas,Indonesia,-0.2623241169497741,121.5814302194578,121.5814302194578,-0.2623241169497741,121.5814302194578,2024-08-31,0.0,0.0,0.0,False,uv3z_08-31-2024.nc4,bottom
Taritatu,Indonesia,-3.5296768839872974,154.40252535995546,154.40252535995546,-3.5296768839872974,154.40252535995546,2024-08-31,-0.006000000052154064,0.009000000543892384,0.010816654307867659,False,uv3z_08-31-2024.nc4,bottom
Chenab,Pakistan,33.59596900367152,78.63515338658249,78.63515338658249,33.59596900367152,78.63515338658249,2024-08-31,,,,False,uv3z_08-31-2024.nc4,bottom
Anadyr’,Russia,90.0,180.0,180.0,90.0,180.0,2024-08-31,0.0010000000474974513,0.0010000000474974513,0.0014142136295446348,False,uv3z_08-31-2024.nc4,bottom
Olenëk,Russia,90.0,134.22173665694598,134.22173665694598,90.0,134.22173665694598,2024-08-31,0.0010000000474974513,0.0010000000474974513,0.0014142136295446348,False,uv3z_08-31-2024.nc4,bottom
Tom’,Russia,77.06061641122025,93.99403615806753,93.99403615806753,77.06061641122025,93.99403615806753,2024-08-31,0.018000001087784767,-0.04000000283122063,0.04386342742716204,False,uv3z_08-31-2024.nc4,bottom
Kamchatka,Russia,75.71386601849316,180.0,180.0,75.71386601849316,180.0,2024-08-31,0.01600000075995922,0.0,0.01600000075995922,False,uv3z_08-31-2024.nc4,bottom
Digul,Indonesia,-7.936438937427128,155.0012481095101,155.0012481095101,-7.936438937427128,155.0012481095101,2024-08-31,0.0,0.0010000000474974513,0.0010000000474974513,False,uv3z_08-31-2024.nc4,bottom
Tocantins,Brazil,-5.93045314419841,-54.23835639065822,305.7616436093418,-5.93045314419841,305.7616436093418,2024-08-31,,,,False,uv3z_08-31-2024.nc4,bottom
Limpopo,Mozambique,-28.810833491226067,37.32453383737479,37.32453383737479,-28.810833491226067,37.32453383737479,2024-08-31,-0.08800000697374344,-0.18300001323223114,0.20305911964345671,False,uv3z_08-31-2024.nc4,bottom
San Juan,Argentina,-37.91659053354884,-74.98683101253731,285.0131689874627,-37.91659053354884,285.0131689874627,2024-08-31,-0.013000000268220901,0.0010000000474974513,0.013038405081479038,False,uv3z_08-31-2024.nc4,bottom
Mangoky,Madagascar,-24.14043315979369,48.470995760472526,48.470995760472526,-24.14043315979369,48.470995760472526,2024-08-31,0.018000001087784767,-0.04000000283122063,0.04386342742716204,False,uv3z_08-31-2024.nc4,bottom
Setit,Ethiopia,16.346260221378483,39.95858780409453,39.95858780409453,16.346260221378483,39.95858780409453,2024-08-31,-0.023000001907348633,-0.01600000075995922,0.02801785345198194,False,uv3z_08-31-2024.nc4,bottom
Mamberamo,Indonesia,-1.6413403755289602,153.52120982102866,153.52120982102866,-1.6413403755289602,153.52120982102866,2024-08-31,0.0010000000474974513,0.0,0.0010000000474974513,False,uv3z_08-31-2024.nc4,bottom
Kheta,Russia,90.0,113.63284896132129,113.63284896132129,90.0,113.63284896132129,2024-08-31,0.0010000000474974513,0.0020000000949949026,0.0022360680837073196,False,uv3z_08-31-2024.nc4,bottom
Chulyshman,Russia,65.01118439260438,99.8049896747846,99.8049896747846,65.01118439260438,99.8049896747846,2024-08-31,,,,False,uv3z_08-31-2024.nc4,bottom
Konqi,China,49.30474245862329,99.50511192541616,99.50511192541616,49.30474245862329,99.50511192541616,2024-08-31,,,,False,uv3z_08-31-2024.nc4,bottom
Tarim,China,49.06317837628041,90.04404231239019,90.04404231239019,49.06317837628041,90.04404231239019,2024-08-31,,,,False,uv3z_08-31-2024.nc4,bottom
Desaguadero,Argentina,-37.926328293587595,-74.98683101253731,285.0131689874627,-37.926328293587595,285.0131689874627,2024-08-31,-0.013000000268220901,0.0010000000474974513,0.013038405081479038,False,uv3z_08-31-2024.nc4,bottom
Bahr el  Zeraf,South Sudan,8.615312142442717,33.99223271307182,33.99223271307182,8.615312142442717,33.99223271307182,2024-08-31,,,,False,uv3z_08-31-2024.nc4,bottom
Sanaga,Cameroon,4.014215668761617,10.931106541006486,10.931106541006486,4.014215668761617,10.931106541006486,2024-08-31,,,,False,uv3z_08-31-2024.nc4,bottom
Busira,Democratic Republic of the Congo,-0.31134876918930765,23.102870981112808,23.102870981112808,-0.31134876918930765,23.102870981112808,2024-08-31,,,,False,uv3z_08-31-2024.nc4,bottom
Jubba,Somalia,-0.2705308750284493,47.456455577046526,47.456455577046526,-0.2705308750284493,47.456455577046526,2024-08-31,0.014000000432133675,0.024000000208616257,0.02778488837683757,False,uv3z_08-31-2024.nc4,bottom
Xiliao,China,53.472691723668795,134.42774294117766,134.42774294117766,53.472691723668795,134.42774294117766,2024-08-31,,,,False,uv3z_08-31-2024.nc4,bottom
Sangha,Republic of the Congo,1.837445095954924,17.888302939485513,17.888302939485513,1.837445095954924,17.888302939485513,2024-08-31,,,,False,uv3z_08-31-2024.nc4,bottom
Ruki,Democratic Republic of the Congo,-0.24234715841362586,21.096348030608084,21.096348030608084,-0.24234715841362586,21.096348030608084,2024-08-31,,,,False,uv3z_08-31-2024.nc4,bottom
